time(millisecond),datetime(utc),latitude,longitude,height_above_takeoff(meters),altitude_above_seaLevel(meters),satellites
0,2019-07-04 06:25:30,61.504732,23.763994,0.4,102.6797699,11
100,2019-07-04 06:25:30,61.504732,23.763994,0.5,102.7797699,11
210,2019-07-04 06:25:30,61.504733,23.763994,0.6,102.8797699,11
310,2019-07-04 06:25:30,61.504733,23.763993,0.8,103.0797699,11
410,2019-07-04 06:25:30,61.504733,23.763993,1,103.2797699,12
510,2019-07-04 06:25:30,61.504734,23.763993,1.2,103.4797699,12
610,2019-07-04 06:25:30,61.504734,23.763993,1.5,103.7797699,13
720,2019-07-04 06:25:30,61.504734,23.763993,1.7,103.9797699,13
820,2019-07-04 06:25:31,61.504735,23.763992,2,104.2797699,13
920,2019-07-04 06:25:31,61.504735,23.763991,2.2,104.4797699,13
1020,2019-07-04 06:25:31,61.504736,23.76399,2.5,104.7797699,13
1120,2019-07-04 06:25:31,61.504736,23.763989,2.7,104.9797699,13
1230,2019-07-04 06:25:31,61.504737,23.763986,3,105.2797699,13
1320,2019-07-04 06:25:31,61.504737,23.763986,3.2,105.4797699,13
1430,2019-07-04 06:25:31,61.504737,23.763985,3.4,105.6797699,13
1530,2019-07-04 06:25:31,61.504737,23.763985,3.7,105.9797699,13
1630,2019-07-04 06:25:31,61.504737,23.763986,3.9,106.1797699,13
1730,2019-07-04 06:25:32,61.504737,23.763986,4.2,106.4797699,13
1830,2019-07-04 06:25:32,61.504737,23.763987,4.5,106.7797699,12
1940,2019-07-04 06:25:32,61.504737,23.763987,4.8,107.0797699,12
2040,2019-07-04 06:25:32,61.504737,23.763988,5.2,107.4797699,13
2140,2019-07-04 06:25:32,61.504737,23.763989,5.5,107.7797699,13
2240,2019-07-04 06:25:32,61.504737,23.76399,5.9,108.1797699,12
2350,2019-07-04 06:25:32,61.504737,23.76399,6.4,108.6797699,12
2550,2019-07-04 06:25:32,61.504738,23.763991,7.3,109.5797699,12
2750,2019-07-04 06:25:33,61.504738,23.763991,8,110.2797699,12
2850,2019-07-04 06:25:33,61.504738,23.763991,8.4,110.6797699,13
2960,2019-07-04 06:25:33,61.504738,23.76399,8.8,111.0797699,13
3060,2019-07-04 06:25:33,61.504738,23.76399,9.7,111.9797699,12
3160,2019-07-04 06:25:33,61.504738,23.76399,10.1,112.3797699,12
3260,2019-07-04 06:25:33,61.504738,23.763991,10.7,112.9797699,12
3360,2019-07-04 06:25:33,61.504738,23.763991,11.2,113.4797699,14
3460,2019-07-04 06:25:33,61.504739,23.763992,11.6,113.8797699,14
3560,2019-07-04 06:25:33,61.504739,23.763992,12.1,114.3797699,13
3670,2019-07-04 06:25:33,61.504738,23.763992,12.6,114.8797699,13
3770,2019-07-04 06:25:34,61.504739,23.763993,13.1,115.3797699,13
3870,2019-07-04 06:25:34,61.504739,23.763994,13.5,115.7797699,13
3980,2019-07-04 06:25:34,61.504738,23.763994,14.1,116.3797699,14
4080,2019-07-04 06:25:34,61.504738,23.763994,14.5,116.7797699,14
4180,2019-07-04 06:25:34,61.504738,23.763994,15,117.2797699,15
4280,2019-07-04 06:25:34,61.504738,23.763994,15.5,117.7797699,15
4380,2019-07-04 06:25:34,61.504738,23.763994,16,118.2797699,16
4480,2019-07-04 06:25:34,61.504738,23.763994,16.6,118.8797699,16
4580,2019-07-04 06:25:34,61.504738,23.763993,17.1,119.3797699,17
4680,2019-07-04 06:25:34,61.504737,23.763993,17.6,119.8797699,17
4790,2019-07-04 06:25:35,61.504737,23.763993,18.1,120.3797699,16
4890,2019-07-04 06:25:35,61.504737,23.763992,18.6,120.8797699,16
4990,2019-07-04 06:25:35,61.504737,23.763992,19.2,121.4797699,16
5090,2019-07-04 06:25:35,61.504737,23.763991,19.6,121.8797699,16
5190,2019-07-04 06:25:35,61.504737,23.763991,20.2,122.4797699,18
5290,2019-07-04 06:25:35,61.504736,23.76399,20.7,122.9797699,18
5390,2019-07-04 06:25:35,61.504736,23.76399,21.2,123.4797699,18
5490,2019-07-04 06:25:35,61.504736,23.763989,21.7,123.9797699,18
5600,2019-07-04 06:25:35,61.504736,23.763987,22.2,124.4797699,19
5700,2019-07-04 06:25:35,61.504736,23.763987,22.7,124.9797699,19
5800,2019-07-04 06:25:36,61.504735,23.763986,23.2,125.4797699,19
5900,2019-07-04 06:25:36,61.504735,23.763985,23.7,125.9797699,19
6000,2019-07-04 06:25:36,61.504735,23.763985,24.2,126.4797699,19
6110,2019-07-04 06:25:36,61.504735,23.763984,24.8,127.0797699,19
6210,2019-07-04 06:25:36,61.504735,23.763984,25.2,127.4797699,19
6310,2019-07-04 06:25:36,61.504735,23.763984,25.7,127.9797699,19
6420,2019-07-04 06:25:36,61.504734,23.763983,26.2,128.4797699,19
6520,2019-07-04 06:25:36,61.504734,23.763983,26.7,128.9797699,19
6620,2019-07-04 06:25:36,61.504734,23.763983,27.2,129.4797699,19
6720,2019-07-04 06:25:36,61.504734,23.763984,27.7,129.9797699,19
6820,2019-07-04 06:25:37,61.504733,23.763984,28.1,130.3797699,19
6920,2019-07-04 06:25:37,61.504733,23.763984,28.6,130.8797699,19
7030,2019-07-04 06:25:37,61.504733,23.763984,29.1,131.3797699,19
7130,2019-07-04 06:25:37,61.504732,23.763984,29.7,131.9797699,19
7230,2019-07-04 06:25:37,61.504732,23.763985,30.2,132.4797699,19
7330,2019-07-04 06:25:37,61.504731,23.763985,30.8,133.0797699,19
7440,2019-07-04 06:25:37,61.504731,23.763986,31.3,133.5797699,19
7540,2019-07-04 06:25:37,61.504731,23.763986,31.8,134.0797699,19
7640,2019-07-04 06:25:37,61.504731,23.763987,32.2,134.4797699,19
7740,2019-07-04 06:25:38,61.504731,23.763987,32.7,134.9797699,19
7840,2019-07-04 06:25:38,61.50473,23.763987,33.2,135.4797699,19
7850,2019-07-04 06:25:38,61.50473,23.763988,33.6,135.8797699,19
7940,2019-07-04 06:25:38,61.50473,23.763988,34.1,136.3797699,19
8050,2019-07-04 06:25:38,61.50473,23.763988,34.5,136.7797699,19
8150,2019-07-04 06:25:38,61.50473,23.763988,35.1,137.3797699,19
8350,2019-07-04 06:25:38,61.50473,23.763988,35.6,137.8797699,19
8450,2019-07-04 06:25:38,61.50473,23.763988,36.1,138.3797699,19
8550,2019-07-04 06:25:38,61.50473,23.763988,36.5,138.7797699,19
8560,2019-07-04 06:25:38,61.504729,23.763988,37,139.2797699,19
8760,2019-07-04 06:25:39,61.504729,23.763988,37.5,139.7797699,19
8860,2019-07-04 06:25:39,61.504729,23.763987,38.5,140.7797699,19
8960,2019-07-04 06:25:39,61.504728,23.763987,39,141.2797699,19
9060,2019-07-04 06:25:39,61.504728,23.763986,39.5,141.7797699,19
9160,2019-07-04 06:25:39,61.504728,23.763985,40.1,142.3797699,19
9260,2019-07-04 06:25:39,61.504728,23.763984,40.6,142.8797699,19
9470,2019-07-04 06:25:39,61.504728,23.763984,41.1,143.3797699,19
9480,2019-07-04 06:25:39,61.504728,23.763983,41.6,143.8797699,19
9580,2019-07-04 06:25:39,61.504728,23.763983,42.2,144.4797699,19
9680,2019-07-04 06:25:39,61.504728,23.763983,42.7,144.9797699,19
9780,2019-07-04 06:25:40,61.504728,23.763982,43.2,145.4797699,19
9880,2019-07-04 06:25:40,61.504728,23.763982,43.7,145.9797699,19
9980,2019-07-04 06:25:40,61.504728,23.763982,44.1,146.3797699,19
10080,2019-07-04 06:25:40,61.504728,23.763982,44.6,146.8797699,19
10180,2019-07-04 06:25:40,61.504728,23.763982,45,147.2797699,19
10280,2019-07-04 06:25:40,61.504728,23.763982,45.5,147.7797699,19
10390,2019-07-04 06:25:40,61.504728,23.763981,45.9,148.1797699,19
10490,2019-07-04 06:25:40,61.504728,23.763981,46.4,148.6797699,19
10600,2019-07-04 06:25:40,61.504728,23.763981,46.8,149.0797699,19
10700,2019-07-04 06:25:40,61.504727,23.763981,47.4,149.6797699,19
10800,2019-07-04 06:25:41,61.504727,23.76398,47.9,150.1797699,19
10900,2019-07-04 06:25:41,61.504727,23.76398,48.3,150.5797699,19
11000,2019-07-04 06:25:41,61.504728,23.76398,48.7,150.9797699,19
11100,2019-07-04 06:25:41,61.504727,23.76398,49,151.2797699,19
11200,2019-07-04 06:25:41,61.504727,23.763981,49.3,151.5797699,19
11310,2019-07-04 06:25:41,61.504727,23.763981,49.5,151.7797699,19
11420,2019-07-04 06:25:41,61.504727,23.763981,49.8,152.0797699,19
11520,2019-07-04 06:25:41,61.504726,23.763982,49.9,152.1797699,19
11620,2019-07-04 06:25:41,61.504726,23.763982,50,152.2797699,19
11720,2019-07-04 06:25:41,61.504726,23.763982,50.1,152.3797699,19
11830,2019-07-04 06:25:42,61.504725,23.763983,50.2,152.4797699,19
11930,2019-07-04 06:25:42,61.504725,23.763984,50.2,152.4797699,19
12030,2019-07-04 06:25:42,61.504725,23.763984,50.2,152.4797699,19
12130,2019-07-04 06:25:42,61.504725,23.763984,50.2,152.4797699,19
12230,2019-07-04 06:25:42,61.504725,23.763985,50.2,152.4797699,19
12330,2019-07-04 06:25:42,61.504725,23.763984,50.1,152.3797699,19
12440,2019-07-04 06:25:42,61.504724,23.763984,50.2,152.4797699,19
12540,2019-07-04 06:25:42,61.504724,23.763985,50.1,152.3797699,19
12640,2019-07-04 06:25:42,61.504724,23.763985,50.2,152.4797699,19
12740,2019-07-04 06:25:43,61.504723,23.763985,50.2,152.4797699,19
12850,2019-07-04 06:25:43,61.504723,23.763985,50.2,152.4797699,19
12950,2019-07-04 06:25:43,61.504722,23.763986,50.2,152.4797699,19
13050,2019-07-04 06:25:43,61.504722,23.763986,50.3,152.5797699,19
13150,2019-07-04 06:25:43,61.504722,23.763987,50.2,152.4797699,19
13260,2019-07-04 06:25:43,61.504722,23.763987,50.2,152.4797699,19
13460,2019-07-04 06:25:43,61.504722,23.763987,50.2,152.4797699,19
13560,2019-07-04 06:25:43,61.504721,23.763987,50.1,152.3797699,19
13660,2019-07-04 06:25:43,61.504721,23.763987,50.1,152.3797699,19
13770,2019-07-04 06:25:44,61.504721,23.763988,50.1,152.3797699,19
13880,2019-07-04 06:25:44,61.504721,23.763988,50.1,152.3797699,19
13980,2019-07-04 06:25:44,61.504722,23.763987,50.1,152.3797699,18
14080,2019-07-04 06:25:44,61.504722,23.763987,50.1,152.3797699,18
14180,2019-07-04 06:25:44,61.504722,23.763988,50.1,152.3797699,19
14280,2019-07-04 06:25:44,61.504722,23.763988,50.1,152.3797699,19
14390,2019-07-04 06:25:44,61.504722,23.763988,50,152.2797699,19
14490,2019-07-04 06:25:44,61.504722,23.763988,50,152.2797699,19
14590,2019-07-04 06:25:44,61.504723,23.763988,50,152.2797699,19
14690,2019-07-04 06:25:44,61.504723,23.763988,50.1,152.3797699,19
14800,2019-07-04 06:25:45,61.504723,23.763988,49.9,152.1797699,19
14900,2019-07-04 06:25:45,61.504723,23.763988,50,152.2797699,19
15000,2019-07-04 06:25:45,61.504723,23.763989,50,152.2797699,19
15100,2019-07-04 06:25:45,61.504723,23.763989,50.1,152.3797699,19
15200,2019-07-04 06:25:45,61.504724,23.763989,50.1,152.3797699,19
15300,2019-07-04 06:25:45,61.504724,23.763989,50.2,152.4797699,19
15410,2019-07-04 06:25:45,61.504724,23.763989,50.2,152.4797699,19
15510,2019-07-04 06:25:45,61.504725,23.763989,50.2,152.4797699,19
15610,2019-07-04 06:25:45,61.504725,23.763989,50.2,152.4797699,19
15710,2019-07-04 06:25:45,61.504725,23.763989,50.2,152.4797699,19
15820,2019-07-04 06:25:46,61.504726,23.763989,50.2,152.4797699,19
15920,2019-07-04 06:25:46,61.504726,23.763989,50.2,152.4797699,19
16020,2019-07-04 06:25:46,61.504726,23.763989,50.2,152.4797699,19
16130,2019-07-04 06:25:46,61.504726,23.763989,50.2,152.4797699,19
16230,2019-07-04 06:25:46,61.504726,23.76399,50.2,152.4797699,19
16330,2019-07-04 06:25:46,61.504727,23.76399,50.2,152.4797699,19
16440,2019-07-04 06:25:46,61.504727,23.76399,50.3,152.5797699,19
16540,2019-07-04 06:25:46,61.504727,23.76399,50.3,152.5797699,19
16640,2019-07-04 06:25:46,61.504727,23.76399,50.4,152.6797699,19
16740,2019-07-04 06:25:47,61.504728,23.763989,50.3,152.5797699,19
16850,2019-07-04 06:25:47,61.504728,23.763989,50.3,152.5797699,19
16950,2019-07-04 06:25:47,61.504728,23.763989,50.4,152.6797699,19
16960,2019-07-04 06:25:47,61.504728,23.763989,50.4,152.6797699,19
17060,2019-07-04 06:25:47,61.504728,23.763989,50.4,152.6797699,19
17160,2019-07-04 06:25:47,61.504728,23.763989,50.4,152.6797699,19
17260,2019-07-04 06:25:47,61.504728,23.763989,50.3,152.5797699,19
17360,2019-07-04 06:25:47,61.504728,23.76399,50.3,152.5797699,19
17470,2019-07-04 06:25:47,61.504729,23.76399,50.3,152.5797699,19
17570,2019-07-04 06:25:47,61.504729,23.76399,50.3,152.5797699,19
17670,2019-07-04 06:25:47,61.504729,23.76399,50.3,152.5797699,19
17770,2019-07-04 06:25:48,61.504729,23.76399,50.3,152.5797699,19
17880,2019-07-04 06:25:48,61.504729,23.76399,50.3,152.5797699,19
17980,2019-07-04 06:25:48,61.504729,23.76399,50.4,152.6797699,19
18080,2019-07-04 06:25:48,61.504729,23.76399,50.4,152.6797699,19
18180,2019-07-04 06:25:48,61.50473,23.76399,50.4,152.6797699,19
18280,2019-07-04 06:25:48,61.50473,23.76399,50.4,152.6797699,19
18380,2019-07-04 06:25:48,61.50473,23.76399,50.4,152.6797699,19
18500,2019-07-04 06:25:48,61.50473,23.76399,50.4,152.6797699,19
18590,2019-07-04 06:25:48,61.50473,23.763989,50.4,152.6797699,19
18860,2019-07-04 06:25:49,61.50473,23.763989,50.4,152.6797699,19
18870,2019-07-04 06:25:49,61.50473,23.763989,50.4,152.6797699,19
18900,2019-07-04 06:25:49,61.504731,23.763988,50.4,152.6797699,19
19000,2019-07-04 06:25:49,61.504731,23.763988,50.4,152.6797699,19
19110,2019-07-04 06:25:49,61.504731,23.763987,50.4,152.6797699,19
19210,2019-07-04 06:25:49,61.504731,23.763987,50.4,152.6797699,19
19330,2019-07-04 06:25:49,61.504731,23.763987,50.4,152.6797699,19
19430,2019-07-04 06:25:49,61.504731,23.763986,50.4,152.6797699,19
19530,2019-07-04 06:25:49,61.504732,23.763985,50.4,152.6797699,19
19630,2019-07-04 06:25:49,61.504732,23.763985,50.4,152.6797699,19
19730,2019-07-04 06:25:49,61.504732,23.763985,50.4,152.6797699,19
19820,2019-07-04 06:25:50,61.504732,23.763985,50.4,152.6797699,19
19930,2019-07-04 06:25:50,61.504732,23.763985,50.4,152.6797699,19
20030,2019-07-04 06:25:50,61.504732,23.763985,50.5,152.7797699,19
20140,2019-07-04 06:25:50,61.504732,23.763986,50.5,152.7797699,19
20240,2019-07-04 06:25:50,61.504732,23.763986,50.5,152.7797699,19
20340,2019-07-04 06:25:50,61.504732,23.763987,50.5,152.7797699,19
20440,2019-07-04 06:25:50,61.504732,23.763987,50.5,152.7797699,19
20560,2019-07-04 06:25:50,61.504732,23.763987,50.4,152.6797699,19
20660,2019-07-04 06:25:50,61.504732,23.763987,50.4,152.6797699,19
20760,2019-07-04 06:25:51,61.504732,23.763987,50.3,152.5797699,19
20860,2019-07-04 06:25:51,61.504732,23.763987,50.3,152.5797699,19
20960,2019-07-04 06:25:51,61.504732,23.763988,50.3,152.5797699,19
21060,2019-07-04 06:25:51,61.504732,23.763988,50.2,152.4797699,19
21260,2019-07-04 06:25:51,61.504732,23.763988,50.2,152.4797699,19
21270,2019-07-04 06:25:51,61.504732,23.763988,50.1,152.3797699,19
21380,2019-07-04 06:25:51,61.504732,23.763988,50.2,152.4797699,19
21480,2019-07-04 06:25:51,61.504732,23.763988,50.2,152.4797699,19
21580,2019-07-04 06:25:51,61.504732,23.763988,50.2,152.4797699,19
21680,2019-07-04 06:25:51,61.504732,23.763988,50.3,152.5797699,19
21780,2019-07-04 06:25:52,61.504732,23.763988,50.3,152.5797699,19
21880,2019-07-04 06:25:52,61.504732,23.763988,50.3,152.5797699,19
22070,2019-07-04 06:25:52,61.504732,23.763988,50.2,152.4797699,19
22090,2019-07-04 06:25:52,61.504732,23.763988,50.2,152.4797699,19
22200,2019-07-04 06:25:52,61.504732,23.763988,50.1,152.3797699,19
22310,2019-07-04 06:25:52,61.504732,23.763987,50.2,152.4797699,19
22410,2019-07-04 06:25:52,61.504732,23.763987,50.1,152.3797699,19
22650,2019-07-04 06:25:52,61.504731,23.763987,50.1,152.3797699,19
22660,2019-07-04 06:25:52,61.504731,23.763987,50.1,152.3797699,19
22730,2019-07-04 06:25:52,61.504731,23.763987,50.1,152.3797699,19
22800,2019-07-04 06:25:53,61.504731,23.763987,50.1,152.3797699,19
22910,2019-07-04 06:25:53,61.504731,23.763986,50.1,152.3797699,19
23010,2019-07-04 06:25:53,61.504731,23.763986,50,152.2797699,19
23120,2019-07-04 06:25:53,61.504731,23.763986,50,152.2797699,19
23200,2019-07-04 06:25:53,61.504731,23.763986,50,152.2797699,19
23300,2019-07-04 06:25:53,61.504732,23.763985,49.9,152.1797699,19
23400,2019-07-04 06:25:53,61.504732,23.763985,49.9,152.1797699,19
23500,2019-07-04 06:25:53,61.504732,23.763984,49.9,152.1797699,19
23610,2019-07-04 06:25:53,61.504732,23.763984,49.9,152.1797699,19
23710,2019-07-04 06:25:53,61.504732,23.763984,49.9,152.1797699,19
23810,2019-07-04 06:25:54,61.504732,23.763983,50,152.2797699,19
23910,2019-07-04 06:25:54,61.504732,23.763983,49.9,152.1797699,19
24010,2019-07-04 06:25:54,61.504731,23.763983,49.9,152.1797699,19
24130,2019-07-04 06:25:54,61.504731,23.763983,49.8,152.0797699,19
24230,2019-07-04 06:25:54,61.504731,23.763983,49.8,152.0797699,19
24330,2019-07-04 06:25:54,61.504731,23.763983,49.8,152.0797699,19
24430,2019-07-04 06:25:54,61.504731,23.763983,49.8,152.0797699,19
24540,2019-07-04 06:25:54,61.504731,23.763983,49.8,152.0797699,19
24640,2019-07-04 06:25:54,61.504732,23.763983,49.8,152.0797699,19
24740,2019-07-04 06:25:55,61.504732,23.763983,49.8,152.0797699,19
24840,2019-07-04 06:25:55,61.504732,23.763984,49.8,152.0797699,19
24960,2019-07-04 06:25:55,61.504732,23.763984,49.9,152.1797699,19
25060,2019-07-04 06:25:55,61.504732,23.763984,49.9,152.1797699,19
25160,2019-07-04 06:25:55,61.504732,23.763984,50,152.2797699,19
25260,2019-07-04 06:25:55,61.504732,23.763985,50,152.2797699,19
25360,2019-07-04 06:25:55,61.504732,23.763985,50,152.2797699,19
25460,2019-07-04 06:25:55,61.504732,23.763985,50.1,152.3797699,19
25560,2019-07-04 06:25:55,61.504732,23.763985,50.1,152.3797699,19
25660,2019-07-04 06:25:55,61.504732,23.763985,50.1,152.3797699,19
25760,2019-07-04 06:25:56,61.504732,23.763985,50.1,152.3797699,19
25860,2019-07-04 06:25:56,61.504732,23.763986,50,152.2797699,19
25960,2019-07-04 06:25:56,61.504732,23.763986,50,152.2797699,19
26060,2019-07-04 06:25:56,61.504732,23.763987,50,152.2797699,19
26160,2019-07-04 06:25:56,61.504732,23.763987,50.1,152.3797699,19
26260,2019-07-04 06:25:56,61.504732,23.763988,50,152.2797699,19
26370,2019-07-04 06:25:56,61.504731,23.763988,50.1,152.3797699,19
26460,2019-07-04 06:25:56,61.504731,23.763988,50.1,152.3797699,19
26590,2019-07-04 06:25:56,61.504731,23.763988,50,152.2797699,19
26700,2019-07-04 06:25:56,61.504731,23.763988,50,152.2797699,19
26800,2019-07-04 06:25:57,61.504731,23.763988,50,152.2797699,19
26900,2019-07-04 06:25:57,61.504731,23.763988,50,152.2797699,19
27000,2019-07-04 06:25:57,61.504731,23.763988,50,152.2797699,19
27100,2019-07-04 06:25:57,61.504731,23.763988,50,152.2797699,19
27200,2019-07-04 06:25:57,61.504732,23.763988,50,152.2797699,19
27300,2019-07-04 06:25:57,61.504732,23.763988,50.1,152.3797699,19
27400,2019-07-04 06:25:57,61.504732,23.763988,50.1,152.3797699,19
27500,2019-07-04 06:25:57,61.504732,23.763988,50.1,152.3797699,19
27600,2019-07-04 06:25:57,61.504732,23.763988,50.1,152.3797699,19
27710,2019-07-04 06:25:57,61.504732,23.763988,50.2,152.4797699,19
27810,2019-07-04 06:25:58,61.504732,23.763988,50.2,152.4797699,19
27910,2019-07-04 06:25:58,61.504732,23.763987,50.1,152.3797699,19
28010,2019-07-04 06:25:58,61.504732,23.763987,50.1,152.3797699,19
28110,2019-07-04 06:25:58,61.504732,23.763987,50.1,152.3797699,19
28220,2019-07-04 06:25:58,61.504732,23.763987,50.1,152.3797699,19
28320,2019-07-04 06:25:58,61.504732,23.763987,50.2,152.4797699,19
28410,2019-07-04 06:25:58,61.504732,23.763987,50.2,152.4797699,18
28520,2019-07-04 06:25:58,61.504733,23.763988,50.1,152.3797699,18
28620,2019-07-04 06:25:58,61.504733,23.763989,50.1,152.3797699,19
28720,2019-07-04 06:25:58,61.504734,23.76399,50.1,152.3797699,19
28950,2019-07-04 06:25:59,61.504734,23.763992,50,152.2797699,19
29060,2019-07-04 06:25:59,61.504736,23.763997,49.9,152.1797699,19
29160,2019-07-04 06:25:59,61.504737,23.764,49.9,152.1797699,19
29260,2019-07-04 06:25:59,61.504738,23.764003,49.9,152.1797699,19
29360,2019-07-04 06:25:59,61.504739,23.764007,49.9,152.1797699,19
29430,2019-07-04 06:25:59,61.504741,23.76401,49.9,152.1797699,19
29540,2019-07-04 06:25:59,61.504743,23.764014,49.9,152.1797699,19
29640,2019-07-04 06:25:59,61.504745,23.764018,49.9,152.1797699,19
29750,2019-07-04 06:26:00,61.504748,23.764021,50,152.2797699,19
29850,2019-07-04 06:26:00,61.50475,23.764025,50,152.2797699,19
29960,2019-07-04 06:26:00,61.504753,23.764029,50,152.2797699,19
29970,2019-07-04 06:26:00,61.504756,23.764034,50,152.2797699,19
30060,2019-07-04 06:26:00,61.50476,23.764039,50,152.2797699,19
30260,2019-07-04 06:26:00,61.504763,23.764044,50,152.2797699,19
30270,2019-07-04 06:26:00,61.504767,23.76405,50.1,152.3797699,19
30360,2019-07-04 06:26:00,61.50477,23.764056,50.1,152.3797699,19
30460,2019-07-04 06:26:00,61.504773,23.764061,50.1,152.3797699,19
30560,2019-07-04 06:26:00,61.504776,23.764067,50.1,152.3797699,19
30670,2019-07-04 06:26:00,61.50478,23.764074,50,152.2797699,19
30770,2019-07-04 06:26:01,61.504784,23.76408,49.9,152.1797699,19
30870,2019-07-04 06:26:01,61.504787,23.764086,49.9,152.1797699,19
30980,2019-07-04 06:26:01,61.50479,23.76409,49.9,152.1797699,19
31080,2019-07-04 06:26:01,61.504794,23.764097,49.9,152.1797699,19
31180,2019-07-04 06:26:01,61.504797,23.764104,49.8,152.0797699,19
31280,2019-07-04 06:26:01,61.5048,23.764111,49.8,152.0797699,19
31380,2019-07-04 06:26:01,61.504804,23.764118,49.8,152.0797699,19
31480,2019-07-04 06:26:01,61.504807,23.764124,49.8,152.0797699,19
31590,2019-07-04 06:26:01,61.504809,23.764129,49.8,152.0797699,18
31690,2019-07-04 06:26:01,61.504811,23.764134,49.9,152.1797699,18
31790,2019-07-04 06:26:02,61.504813,23.764139,50,152.2797699,19
31890,2019-07-04 06:26:02,61.504814,23.764143,50,152.2797699,19
32000,2019-07-04 06:26:02,61.504815,23.764147,50.1,152.3797699,19
32100,2019-07-04 06:26:02,61.504816,23.76415,50.1,152.3797699,19
32200,2019-07-04 06:26:02,61.504817,23.764154,50.1,152.3797699,19
32300,2019-07-04 06:26:02,61.504817,23.764157,50,152.2797699,19
32400,2019-07-04 06:26:02,61.504818,23.76416,50,152.2797699,19
32510,2019-07-04 06:26:02,61.504818,23.764162,50,152.2797699,19
32610,2019-07-04 06:26:02,61.504819,23.764164,50,152.2797699,19
32720,2019-07-04 06:26:02,61.504819,23.764168,49.9,152.1797699,19
32820,2019-07-04 06:26:03,61.504819,23.76417,50,152.2797699,19
32920,2019-07-04 06:26:03,61.504819,23.764171,50,152.2797699,19
33020,2019-07-04 06:26:03,61.504819,23.764171,50,152.2797699,19
33130,2019-07-04 06:26:03,61.504819,23.764173,50,152.2797699,19
33230,2019-07-04 06:26:03,61.504819,23.764173,50.1,152.3797699,19
33330,2019-07-04 06:26:03,61.504819,23.764174,50,152.2797699,19
33430,2019-07-04 06:26:03,61.504818,23.764174,50,152.2797699,19
33540,2019-07-04 06:26:03,61.504818,23.764174,50,152.2797699,19
33640,2019-07-04 06:26:03,61.504818,23.764174,50,152.2797699,19
33740,2019-07-04 06:26:04,61.504818,23.764175,50.1,152.3797699,19
33840,2019-07-04 06:26:04,61.504818,23.764175,50.1,152.3797699,19
33950,2019-07-04 06:26:04,61.504818,23.764175,50.1,152.3797699,19
34050,2019-07-04 06:26:04,61.504818,23.764175,50.2,152.4797699,19
34160,2019-07-04 06:26:04,61.504818,23.764176,50.2,152.4797699,19
34260,2019-07-04 06:26:04,61.504818,23.764176,50.2,152.4797699,19
34360,2019-07-04 06:26:04,61.504818,23.764176,50.2,152.4797699,19
34370,2019-07-04 06:26:04,61.504818,23.764176,50.2,152.4797699,18
34460,2019-07-04 06:26:04,61.504819,23.764177,50.2,152.4797699,18
34570,2019-07-04 06:26:04,61.50482,23.764178,50.3,152.5797699,18
34670,2019-07-04 06:26:04,61.504821,23.764179,50.3,152.5797699,18
34770,2019-07-04 06:26:05,61.504823,23.764181,50.2,152.4797699,19
34880,2019-07-04 06:26:05,61.504824,23.764183,50.3,152.5797699,19
34980,2019-07-04 06:26:05,61.504826,23.764185,50.2,152.4797699,19
35080,2019-07-04 06:26:05,61.504828,23.764188,50.2,152.4797699,19
35180,2019-07-04 06:26:05,61.50483,23.764192,50.2,152.4797699,19
35290,2019-07-04 06:26:05,61.504833,23.764196,50.2,152.4797699,19
35390,2019-07-04 06:26:05,61.504836,23.7642,50.1,152.3797699,19
35500,2019-07-04 06:26:05,61.504839,23.764204,50.1,152.3797699,19
35600,2019-07-04 06:26:05,61.504841,23.764209,50,152.2797699,19
35700,2019-07-04 06:26:05,61.504845,23.764215,49.9,152.1797699,19
35800,2019-07-04 06:26:06,61.504849,23.764221,49.9,152.1797699,19
35900,2019-07-04 06:26:06,61.504853,23.764228,49.9,152.1797699,19
36010,2019-07-04 06:26:06,61.504857,23.764234,50,152.2797699,19
36110,2019-07-04 06:26:06,61.504861,23.764241,50,152.2797699,19
36210,2019-07-04 06:26:06,61.504865,23.764247,50,152.2797699,19
36330,2019-07-04 06:26:06,61.50487,23.764254,49.9,152.1797699,19
36430,2019-07-04 06:26:06,61.504874,23.76426,49.9,152.1797699,19
36530,2019-07-04 06:26:06,61.504878,23.764265,49.9,152.1797699,19
36630,2019-07-04 06:26:06,61.504882,23.764271,49.8,152.0797699,19
36740,2019-07-04 06:26:07,61.504886,23.764277,49.8,152.0797699,19
36850,2019-07-04 06:26:07,61.50489,23.764283,49.8,152.0797699,19
36950,2019-07-04 06:26:07,61.504893,23.764287,49.7,151.9797699,19
37050,2019-07-04 06:26:07,61.504897,23.764292,49.7,151.9797699,19
37160,2019-07-04 06:26:07,61.504901,23.764299,49.7,151.9797699,19
37170,2019-07-04 06:26:07,61.504905,23.764305,49.8,152.0797699,19
37260,2019-07-04 06:26:07,61.50491,23.764313,49.8,152.0797699,19
37370,2019-07-04 06:26:07,61.504913,23.76432,49.8,152.0797699,19
37470,2019-07-04 06:26:07,61.504917,23.764326,49.8,152.0797699,19
37580,2019-07-04 06:26:07,61.504921,23.764332,49.7,151.9797699,19
37680,2019-07-04 06:26:07,61.504925,23.764338,49.8,152.0797699,19
37780,2019-07-04 06:26:08,61.504928,23.764344,49.8,152.0797699,19
37880,2019-07-04 06:26:08,61.504932,23.76435,49.8,152.0797699,19
37980,2019-07-04 06:26:08,61.504936,23.764356,49.9,152.1797699,19
38080,2019-07-04 06:26:08,61.504939,23.764361,49.9,152.1797699,19
38180,2019-07-04 06:26:08,61.504942,23.764366,50,152.2797699,19
38280,2019-07-04 06:26:08,61.504946,23.764372,50,152.2797699,19
38380,2019-07-04 06:26:08,61.504949,23.764378,50,152.2797699,19
38500,2019-07-04 06:26:08,61.504952,23.764384,50.1,152.3797699,19
38600,2019-07-04 06:26:08,61.504956,23.764389,50.1,152.3797699,19
38700,2019-07-04 06:26:08,61.504959,23.764396,50.1,152.3797699,19
38800,2019-07-04 06:26:09,61.504962,23.764402,50,152.2797699,19
38900,2019-07-04 06:26:09,61.504966,23.764408,50,152.2797699,19
39000,2019-07-04 06:26:09,61.504968,23.764414,50,152.2797699,19
39100,2019-07-04 06:26:09,61.504972,23.76442,50,152.2797699,19
39200,2019-07-04 06:26:09,61.504975,23.764426,50,152.2797699,19
39300,2019-07-04 06:26:09,61.504979,23.764432,50,152.2797699,19
39410,2019-07-04 06:26:09,61.504982,23.764438,50,152.2797699,19
39510,2019-07-04 06:26:09,61.504986,23.764445,50,152.2797699,19
39620,2019-07-04 06:26:09,61.50499,23.764451,50,152.2797699,19
39720,2019-07-04 06:26:09,61.504993,23.764458,50,152.2797699,19
39820,2019-07-04 06:26:10,61.504997,23.764463,50.1,152.3797699,19
39930,2019-07-04 06:26:10,61.505,23.764469,50.1,152.3797699,19
40030,2019-07-04 06:26:10,61.505003,23.764475,50.1,152.3797699,19
40130,2019-07-04 06:26:10,61.505007,23.76448,50.1,152.3797699,19
40230,2019-07-04 06:26:10,61.50501,23.764486,50.1,152.3797699,19
40330,2019-07-04 06:26:10,61.505014,23.764491,50.1,152.3797699,19
40440,2019-07-04 06:26:10,61.505018,23.764497,50.1,152.3797699,19
40540,2019-07-04 06:26:10,61.505021,23.764503,50.1,152.3797699,19
40650,2019-07-04 06:26:10,61.505025,23.764509,50.2,152.4797699,19
40760,2019-07-04 06:26:11,61.505028,23.764514,50.2,152.4797699,19
40770,2019-07-04 06:26:11,61.505031,23.764519,50.2,152.4797699,19
40860,2019-07-04 06:26:11,61.505034,23.764525,50.2,152.4797699,19
40970,2019-07-04 06:26:11,61.505038,23.76453,50.2,152.4797699,19
41070,2019-07-04 06:26:11,61.505042,23.764537,50.1,152.3797699,19
41170,2019-07-04 06:26:11,61.505045,23.764543,50.1,152.3797699,19
41280,2019-07-04 06:26:11,61.505049,23.76455,50.2,152.4797699,19
41380,2019-07-04 06:26:11,61.505053,23.764556,50.1,152.3797699,19
41480,2019-07-04 06:26:11,61.505056,23.764562,50.1,152.3797699,19
41580,2019-07-04 06:26:11,61.50506,23.764569,50.1,152.3797699,19
41680,2019-07-04 06:26:11,61.505063,23.764575,50.1,152.3797699,19
41780,2019-07-04 06:26:12,61.505067,23.764581,50.1,152.3797699,19
41890,2019-07-04 06:26:12,61.505071,23.764587,50.1,152.3797699,19
42000,2019-07-04 06:26:12,61.505074,23.764593,50.1,152.3797699,19
42100,2019-07-04 06:26:12,61.505078,23.764599,50.1,152.3797699,19
42200,2019-07-04 06:26:12,61.505081,23.764604,50.1,152.3797699,19
42300,2019-07-04 06:26:12,61.505085,23.76461,50.1,152.3797699,19
42400,2019-07-04 06:26:12,61.505088,23.764615,50.1,152.3797699,19
42500,2019-07-04 06:26:12,61.505092,23.764621,50.1,152.3797699,19
42600,2019-07-04 06:26:12,61.505095,23.764627,50,152.2797699,19
42700,2019-07-04 06:26:12,61.505099,23.764632,50.1,152.3797699,19
42810,2019-07-04 06:26:13,61.505102,23.764638,50.1,152.3797699,19
42910,2019-07-04 06:26:13,61.505105,23.764643,50.2,152.4797699,19
43010,2019-07-04 06:26:13,61.505109,23.764648,50.2,152.4797699,19
43120,2019-07-04 06:26:13,61.505113,23.764654,50.2,152.4797699,19
43220,2019-07-04 06:26:13,61.505116,23.76466,50.2,152.4797699,19
43320,2019-07-04 06:26:13,61.50512,23.764666,50.3,152.5797699,19
43420,2019-07-04 06:26:13,61.505124,23.764671,50.3,152.5797699,19
43530,2019-07-04 06:26:13,61.505127,23.764677,50.2,152.4797699,19
43630,2019-07-04 06:26:13,61.505131,23.764682,50.2,152.4797699,19
43730,2019-07-04 06:26:13,61.505134,23.764688,50.1,152.3797699,19
43830,2019-07-04 06:26:14,61.505138,23.764694,50.1,152.3797699,19
43940,2019-07-04 06:26:14,61.505141,23.7647,50.1,152.3797699,19
44050,2019-07-04 06:26:14,61.505145,23.764706,50.2,152.4797699,19
44150,2019-07-04 06:26:14,61.505148,23.764712,50.2,152.4797699,19
44250,2019-07-04 06:26:14,61.505151,23.764717,50.2,152.4797699,19
44350,2019-07-04 06:26:14,61.505155,23.764724,50.3,152.5797699,19
44450,2019-07-04 06:26:14,61.505161,23.764736,50.3,152.5797699,19
44560,2019-07-04 06:26:14,61.505164,23.764742,50.4,152.6797699,18
44660,2019-07-04 06:26:14,61.505168,23.764748,50.4,152.6797699,18
44760,2019-07-04 06:26:15,61.505171,23.764754,50.4,152.6797699,18
44860,2019-07-04 06:26:15,61.505174,23.764759,50.4,152.6797699,18
45060,2019-07-04 06:26:15,61.505177,23.764764,50.5,152.7797699,18
45070,2019-07-04 06:26:15,61.50518,23.76477,50.5,152.7797699,18
45160,2019-07-04 06:26:15,61.505184,23.764776,50.5,152.7797699,18
45270,2019-07-04 06:26:15,61.505187,23.764782,50.4,152.6797699,18
45370,2019-07-04 06:26:15,61.505191,23.764788,50.4,152.6797699,18
45470,2019-07-04 06:26:15,61.505195,23.764793,50.4,152.6797699,18
45570,2019-07-04 06:26:15,61.505198,23.764798,50.4,152.6797699,18
45670,2019-07-04 06:26:15,61.505201,23.764803,50.4,152.6797699,18
45770,2019-07-04 06:26:16,61.505204,23.764808,50.3,152.5797699,18
45870,2019-07-04 06:26:16,61.505206,23.764812,50.2,152.4797699,18
45970,2019-07-04 06:26:16,61.505208,23.764816,50.2,152.4797699,19
46080,2019-07-04 06:26:16,61.50521,23.76482,50.2,152.4797699,19
46180,2019-07-04 06:26:16,61.505211,23.764824,50.2,152.4797699,19
46280,2019-07-04 06:26:16,61.505211,23.764828,50.1,152.3797699,19
46390,2019-07-04 06:26:16,61.505212,23.764833,50,152.2797699,19
46490,2019-07-04 06:26:16,61.505212,23.764838,50,152.2797699,19
46590,2019-07-04 06:26:16,61.505212,23.764844,50,152.2797699,19
46690,2019-07-04 06:26:16,61.505212,23.764851,49.9,152.1797699,19
46790,2019-07-04 06:26:17,61.505212,23.764858,49.9,152.1797699,19
46890,2019-07-04 06:26:17,61.505212,23.764864,49.9,152.1797699,19
47000,2019-07-04 06:26:17,61.505211,23.764871,49.9,152.1797699,19
47100,2019-07-04 06:26:17,61.505211,23.764878,49.9,152.1797699,19
47200,2019-07-04 06:26:17,61.50521,23.764885,49.9,152.1797699,19
47310,2019-07-04 06:26:17,61.50521,23.764891,50,152.2797699,19
47410,2019-07-04 06:26:17,61.505209,23.764898,49.9,152.1797699,19
47510,2019-07-04 06:26:17,61.505209,23.764904,49.9,152.1797699,19
47610,2019-07-04 06:26:17,61.505209,23.76491,50,152.2797699,19
47710,2019-07-04 06:26:17,61.505209,23.764916,50,152.2797699,19
47810,2019-07-04 06:26:18,61.505209,23.764921,50,152.2797699,19
47910,2019-07-04 06:26:18,61.505209,23.764925,50,152.2797699,19
48020,2019-07-04 06:26:18,61.505209,23.764929,50,152.2797699,19
48120,2019-07-04 06:26:18,61.505209,23.764933,50,152.2797699,19
48220,2019-07-04 06:26:18,61.505209,23.764936,50,152.2797699,19
48330,2019-07-04 06:26:18,61.50521,23.76494,50,152.2797699,19
48430,2019-07-04 06:26:18,61.505211,23.764944,49.9,152.1797699,18
48530,2019-07-04 06:26:18,61.505212,23.764947,49.9,152.1797699,18
48630,2019-07-04 06:26:18,61.505214,23.764951,49.9,152.1797699,19
48730,2019-07-04 06:26:19,61.505215,23.764955,49.9,152.1797699,19
48830,2019-07-04 06:26:19,61.505217,23.76496,50,152.2797699,19
48930,2019-07-04 06:26:19,61.505219,23.764964,49.9,152.1797699,19
49030,2019-07-04 06:26:19,61.505221,23.764968,49.9,152.1797699,19
49130,2019-07-04 06:26:19,61.505223,23.764973,49.9,152.1797699,19
49240,2019-07-04 06:26:19,61.505224,23.764978,50,152.2797699,19
49350,2019-07-04 06:26:19,61.505226,23.764983,50,152.2797699,19
49450,2019-07-04 06:26:19,61.505228,23.764987,50,152.2797699,19
49550,2019-07-04 06:26:19,61.505229,23.764992,50,152.2797699,19
49650,2019-07-04 06:26:19,61.505231,23.764996,50.1,152.3797699,19
49660,2019-07-04 06:26:19,61.505232,23.764999,50.1,152.3797699,19
49850,2019-07-04 06:26:20,61.505234,23.765003,50.1,152.3797699,19
49860,2019-07-04 06:26:20,61.505235,23.765006,50.1,152.3797699,19
49950,2019-07-04 06:26:20,61.505236,23.765009,50.1,152.3797699,19
50060,2019-07-04 06:26:20,61.505236,23.76501,50.1,152.3797699,19
50160,2019-07-04 06:26:20,61.505237,23.765012,50.1,152.3797699,19
50270,2019-07-04 06:26:20,61.505237,23.765013,50.1,152.3797699,19
50370,2019-07-04 06:26:20,61.505238,23.765014,50.1,152.3797699,19
50470,2019-07-04 06:26:20,61.505238,23.765014,50.1,152.3797699,19
50570,2019-07-04 06:26:20,61.505239,23.765014,50.1,152.3797699,19
50670,2019-07-04 06:26:20,61.50524,23.765013,50.1,152.3797699,19
50770,2019-07-04 06:26:21,61.505241,23.765012,50,152.2797699,19
50880,2019-07-04 06:26:21,61.505243,23.76501,50.1,152.3797699,19
50980,2019-07-04 06:26:21,61.505245,23.765009,50.1,152.3797699,19
51080,2019-07-04 06:26:21,61.505247,23.765007,50.1,152.3797699,19
51180,2019-07-04 06:26:21,61.505249,23.765006,50.1,152.3797699,19
51290,2019-07-04 06:26:21,61.505251,23.765004,50.2,152.4797699,19
51500,2019-07-04 06:26:21,61.505256,23.765001,50.2,152.4797699,19
51600,2019-07-04 06:26:21,61.505258,23.764999,50.2,152.4797699,19
51700,2019-07-04 06:26:21,61.50526,23.764997,50.3,152.5797699,19
51800,2019-07-04 06:26:22,61.505261,23.764995,50.3,152.5797699,19
51910,2019-07-04 06:26:22,61.505263,23.764993,50.4,152.6797699,19
52010,2019-07-04 06:26:22,61.505265,23.764991,50.4,152.6797699,19
52120,2019-07-04 06:26:22,61.505267,23.76499,50.4,152.6797699,19
52210,2019-07-04 06:26:22,61.505269,23.764987,50.4,152.6797699,19
52310,2019-07-04 06:26:22,61.505272,23.764985,50.4,152.6797699,19
52420,2019-07-04 06:26:22,61.505275,23.764982,50.3,152.5797699,19
52530,2019-07-04 06:26:22,61.505279,23.76498,50.3,152.5797699,19
52630,2019-07-04 06:26:22,61.505282,23.764976,50.2,152.4797699,19
52730,2019-07-04 06:26:23,61.505286,23.764972,50.2,152.4797699,19
52840,2019-07-04 06:26:23,61.505289,23.764968,50.2,152.4797699,19
52940,2019-07-04 06:26:23,61.505292,23.764964,50.2,152.4797699,19
53040,2019-07-04 06:26:23,61.505295,23.764959,50.1,152.3797699,19
53140,2019-07-04 06:26:23,61.505298,23.764953,50.1,152.3797699,19
53240,2019-07-04 06:26:23,61.505301,23.764946,50.1,152.3797699,19
53340,2019-07-04 06:26:23,61.505304,23.764939,50.1,152.3797699,19
53450,2019-07-04 06:26:23,61.505306,23.764933,50.1,152.3797699,18
53550,2019-07-04 06:26:23,61.505309,23.764924,50.1,152.3797699,18
53750,2019-07-04 06:26:24,61.505313,23.76491,50.2,152.4797699,18
53850,2019-07-04 06:26:24,61.505315,23.764903,50.3,152.5797699,19
53860,2019-07-04 06:26:24,61.505316,23.764897,50.3,152.5797699,19
53960,2019-07-04 06:26:24,61.505318,23.764891,50.3,152.5797699,19
54060,2019-07-04 06:26:24,61.50532,23.764884,50.2,152.4797699,19
54160,2019-07-04 06:26:24,61.505321,23.764879,50.2,152.4797699,19
54260,2019-07-04 06:26:24,61.505322,23.764873,50.1,152.3797699,19
54470,2019-07-04 06:26:24,61.505322,23.764867,50.1,152.3797699,19
54570,2019-07-04 06:26:24,61.505323,23.764856,50,152.2797699,19
54670,2019-07-04 06:26:24,61.505323,23.76485,50,152.2797699,19
54780,2019-07-04 06:26:25,61.505323,23.764845,50,152.2797699,19
54880,2019-07-04 06:26:25,61.505323,23.76484,50,152.2797699,19
54980,2019-07-04 06:26:25,61.505322,23.764835,50,152.2797699,19
55080,2019-07-04 06:26:25,61.505321,23.76483,50,152.2797699,19
55180,2019-07-04 06:26:25,61.50532,23.764825,50,152.2797699,19
55280,2019-07-04 06:26:25,61.505318,23.76482,50.1,152.3797699,19
55390,2019-07-04 06:26:25,61.505317,23.764815,50.1,152.3797699,19
55490,2019-07-04 06:26:25,61.505315,23.76481,50.2,152.4797699,19
55600,2019-07-04 06:26:25,61.505314,23.764806,50.2,152.4797699,19
55700,2019-07-04 06:26:25,61.505313,23.764802,50.3,152.5797699,19
55800,2019-07-04 06:26:26,61.505312,23.764799,50.3,152.5797699,19
55900,2019-07-04 06:26:26,61.505311,23.764795,50.3,152.5797699,19
56000,2019-07-04 06:26:26,61.505311,23.764791,50.3,152.5797699,19
56110,2019-07-04 06:26:26,61.50531,23.764787,50.3,152.5797699,19
56210,2019-07-04 06:26:26,61.505309,23.764783,50.3,152.5797699,19
56310,2019-07-04 06:26:26,61.505308,23.76478,50.3,152.5797699,19
56410,2019-07-04 06:26:26,61.505307,23.764777,50.4,152.6797699,19
56510,2019-07-04 06:26:26,61.505308,23.764774,50.5,152.7797699,19
56610,2019-07-04 06:26:26,61.505308,23.764772,50.4,152.6797699,19
56720,2019-07-04 06:26:26,61.505308,23.764771,50.4,152.6797699,19
56820,2019-07-04 06:26:27,61.505307,23.76477,50.3,152.5797699,19
56930,2019-07-04 06:26:27,61.505308,23.76477,50.2,152.4797699,19
57030,2019-07-04 06:26:27,61.505307,23.76477,50.2,152.4797699,19
57130,2019-07-04 06:26:27,61.505307,23.764771,50.2,152.4797699,19
57230,2019-07-04 06:26:27,61.505306,23.764771,50.1,152.3797699,19
57330,2019-07-04 06:26:27,61.505305,23.764771,50.1,152.3797699,19
57440,2019-07-04 06:26:27,61.505303,23.764771,50.1,152.3797699,19
57540,2019-07-04 06:26:27,61.505301,23.764772,50,152.2797699,19
57640,2019-07-04 06:26:27,61.505299,23.764772,50,152.2797699,19
57740,2019-07-04 06:26:28,61.505298,23.764771,50.1,152.3797699,19
57840,2019-07-04 06:26:28,61.505296,23.764771,50.1,152.3797699,19
57950,2019-07-04 06:26:28,61.505293,23.764771,50.2,152.4797699,19
58050,2019-07-04 06:26:28,61.505291,23.764772,50.2,152.4797699,19
58150,2019-07-04 06:26:28,61.505288,23.764772,50.2,152.4797699,19
58250,2019-07-04 06:26:28,61.505286,23.764772,50.3,152.5797699,19
58350,2019-07-04 06:26:28,61.505283,23.764773,50.3,152.5797699,19
58360,2019-07-04 06:26:28,61.50528,23.764773,50.3,152.5797699,19
58560,2019-07-04 06:26:28,61.505277,23.764773,50.2,152.4797699,19
58570,2019-07-04 06:26:28,61.505275,23.764773,50.2,152.4797699,19
58670,2019-07-04 06:26:28,61.505272,23.764773,50.2,152.4797699,19
58770,2019-07-04 06:26:29,61.505269,23.764773,50.2,152.4797699,19
58870,2019-07-04 06:26:29,61.505267,23.764773,50.2,152.4797699,19
58980,2019-07-04 06:26:29,61.505266,23.764772,50.1,152.3797699,19
59090,2019-07-04 06:26:29,61.505264,23.764772,50.1,152.3797699,19
59190,2019-07-04 06:26:29,61.505262,23.764772,50.1,152.3797699,19
59290,2019-07-04 06:26:29,61.505261,23.764772,50.1,152.3797699,19
59390,2019-07-04 06:26:29,61.505259,23.764772,50,152.2797699,19
59490,2019-07-04 06:26:29,61.505258,23.764773,50,152.2797699,19
59600,2019-07-04 06:26:29,61.505256,23.764775,50.1,152.3797699,19
59700,2019-07-04 06:26:29,61.505254,23.764777,50.1,152.3797699,19
59800,2019-07-04 06:26:30,61.505251,23.764779,50,152.2797699,19
59900,2019-07-04 06:26:30,61.505249,23.76478,49.9,152.1797699,19
60000,2019-07-04 06:26:30,61.505246,23.764782,49.9,152.1797699,19
60110,2019-07-04 06:26:30,61.505244,23.764784,49.9,152.1797699,19
60210,2019-07-04 06:26:30,61.505241,23.764787,49.9,152.1797699,19
60310,2019-07-04 06:26:30,61.505239,23.764788,49.9,152.1797699,19
60410,2019-07-04 06:26:30,61.505236,23.76479,49.8,152.0797699,19
60520,2019-07-04 06:26:30,61.505234,23.764792,49.8,152.0797699,19
60620,2019-07-04 06:26:30,61.505231,23.764794,49.8,152.0797699,19
60720,2019-07-04 06:26:30,61.505229,23.764796,49.8,152.0797699,19
60820,2019-07-04 06:26:31,61.505226,23.764798,49.8,152.0797699,19
60920,2019-07-04 06:26:31,61.505223,23.764799,49.8,152.0797699,19
61020,2019-07-04 06:26:31,61.505219,23.7648,49.8,152.0797699,19
61120,2019-07-04 06:26:31,61.505215,23.764801,49.7,151.9797699,19
61240,2019-07-04 06:26:31,61.505212,23.764801,49.7,151.9797699,19
61340,2019-07-04 06:26:31,61.505207,23.7648,49.7,151.9797699,19
61440,2019-07-04 06:26:31,61.505204,23.764799,49.7,151.9797699,19
61550,2019-07-04 06:26:31,61.5052,23.764797,49.6,151.8797699,19
61650,2019-07-04 06:26:31,61.505197,23.764793,49.6,151.8797699,19
61750,2019-07-04 06:26:32,61.505194,23.76479,49.6,151.8797699,19
61850,2019-07-04 06:26:32,61.505191,23.764786,49.6,151.8797699,19
61950,2019-07-04 06:26:32,61.505188,23.764782,49.6,151.8797699,19
62050,2019-07-04 06:26:32,61.505186,23.764777,49.6,151.8797699,19
62060,2019-07-04 06:26:32,61.505183,23.764772,49.7,151.9797699,19
62160,2019-07-04 06:26:32,61.505179,23.764767,49.7,151.9797699,19
62260,2019-07-04 06:26:32,61.505176,23.764761,49.7,151.9797699,19
62370,2019-07-04 06:26:32,61.505172,23.764755,49.8,152.0797699,19
62470,2019-07-04 06:26:32,61.505168,23.764748,49.9,152.1797699,19
62570,2019-07-04 06:26:32,61.505164,23.764741,49.9,152.1797699,19
62670,2019-07-04 06:26:32,61.50516,23.764734,50,152.2797699,19
62770,2019-07-04 06:26:33,61.505156,23.764727,50,152.2797699,19
62880,2019-07-04 06:26:33,61.505152,23.764721,50.1,152.3797699,19
62980,2019-07-04 06:26:33,61.505149,23.764715,50.1,152.3797699,19
63080,2019-07-04 06:26:33,61.505145,23.764708,50.1,152.3797699,19
63180,2019-07-04 06:26:33,61.505142,23.764701,50.1,152.3797699,19
63280,2019-07-04 06:26:33,61.505138,23.764694,50,152.2797699,19
63390,2019-07-04 06:26:33,61.505134,23.764687,50,152.2797699,19
63490,2019-07-04 06:26:33,61.505131,23.764681,50,152.2797699,19
63590,2019-07-04 06:26:33,61.505127,23.764675,50,152.2797699,19
63690,2019-07-04 06:26:33,61.505124,23.764669,50,152.2797699,19
63790,2019-07-04 06:26:34,61.505121,23.764663,49.9,152.1797699,19
63900,2019-07-04 06:26:34,61.505117,23.764656,50,152.2797699,19
64000,2019-07-04 06:26:34,61.505113,23.76465,50,152.2797699,19
64100,2019-07-04 06:26:34,61.505109,23.764643,50,152.2797699,19
64200,2019-07-04 06:26:34,61.505106,23.764637,49.9,152.1797699,19
64300,2019-07-04 06:26:34,61.505102,23.76463,49.9,152.1797699,19
64400,2019-07-04 06:26:34,61.505099,23.764623,49.9,152.1797699,19
64500,2019-07-04 06:26:34,61.505097,23.764618,50,152.2797699,19
64610,2019-07-04 06:26:34,61.505094,23.764612,50,152.2797699,19
64720,2019-07-04 06:26:34,61.50509,23.764606,50,152.2797699,19
64810,2019-07-04 06:26:35,61.505087,23.764599,50,152.2797699,19
64920,2019-07-04 06:26:35,61.505083,23.764593,50,152.2797699,19
65020,2019-07-04 06:26:35,61.50508,23.764587,50,152.2797699,19
65110,2019-07-04 06:26:35,61.505077,23.764581,50,152.2797699,19
65220,2019-07-04 06:26:35,61.505073,23.764575,49.9,152.1797699,19
65320,2019-07-04 06:26:35,61.50507,23.764569,49.9,152.1797699,19
65420,2019-07-04 06:26:35,61.505066,23.764562,49.9,152.1797699,19
65530,2019-07-04 06:26:35,61.505062,23.764556,49.9,152.1797699,19
65630,2019-07-04 06:26:35,61.505059,23.76455,49.9,152.1797699,19
65730,2019-07-04 06:26:36,61.505055,23.764544,49.9,152.1797699,19
65830,2019-07-04 06:26:36,61.505052,23.764538,49.9,152.1797699,19
65940,2019-07-04 06:26:36,61.505048,23.764533,49.9,152.1797699,19
66040,2019-07-04 06:26:36,61.505045,23.764527,49.9,152.1797699,19
66140,2019-07-04 06:26:36,61.505041,23.764522,50,152.2797699,19
66240,2019-07-04 06:26:36,61.505038,23.764517,50,152.2797699,19
66340,2019-07-04 06:26:36,61.505034,23.764511,50,152.2797699,19
66440,2019-07-04 06:26:36,61.505031,23.764506,50,152.2797699,19
66550,2019-07-04 06:26:36,61.505027,23.7645,50,152.2797699,19
66650,2019-07-04 06:26:36,61.505024,23.764494,50,152.2797699,19
66750,2019-07-04 06:26:37,61.50502,23.764488,50,152.2797699,19
66760,2019-07-04 06:26:37,61.505017,23.764482,50.1,152.3797699,19
66860,2019-07-04 06:26:37,61.505014,23.764477,50.1,152.3797699,19
66960,2019-07-04 06:26:37,61.505011,23.764472,50.1,152.3797699,19
67060,2019-07-04 06:26:37,61.505007,23.764466,50.1,152.3797699,19
67260,2019-07-04 06:26:37,61.505003,23.76446,50.1,152.3797699,19
67270,2019-07-04 06:26:37,61.504999,23.764454,50.1,152.3797699,19
67370,2019-07-04 06:26:37,61.504996,23.764448,50.1,152.3797699,19
67570,2019-07-04 06:26:37,61.504992,23.764442,50.1,152.3797699,19
67680,2019-07-04 06:26:37,61.504984,23.76443,50,152.2797699,19
67780,2019-07-04 06:26:38,61.504981,23.764424,50.1,152.3797699,19
67880,2019-07-04 06:26:38,61.504978,23.764419,50.1,152.3797699,19
67980,2019-07-04 06:26:38,61.504974,23.764413,50.1,152.3797699,19
68080,2019-07-04 06:26:38,61.504971,23.764407,50,152.2797699,19
68180,2019-07-04 06:26:38,61.504967,23.764401,50,152.2797699,19
68280,2019-07-04 06:26:38,61.504963,23.764395,50,152.2797699,19
68390,2019-07-04 06:26:38,61.504959,23.76439,50,152.2797699,19
68490,2019-07-04 06:26:38,61.504955,23.764384,50,152.2797699,19
68590,2019-07-04 06:26:38,61.504952,23.764378,50,152.2797699,19
68690,2019-07-04 06:26:38,61.504948,23.764372,50.1,152.3797699,19
68800,2019-07-04 06:26:39,61.504944,23.764366,50,152.2797699,19
68900,2019-07-04 06:26:39,61.504941,23.764361,50,152.2797699,19
69000,2019-07-04 06:26:39,61.504938,23.764356,50,152.2797699,19
69100,2019-07-04 06:26:39,61.504934,23.76435,49.9,152.1797699,19
69200,2019-07-04 06:26:39,61.50493,23.764343,49.9,152.1797699,19
69310,2019-07-04 06:26:39,61.504926,23.764337,49.8,152.0797699,19
69410,2019-07-04 06:26:39,61.504922,23.764331,49.8,152.0797699,19
69510,2019-07-04 06:26:39,61.504919,23.764325,49.8,152.0797699,19
69610,2019-07-04 06:26:39,61.504915,23.76432,49.8,152.0797699,19
69710,2019-07-04 06:26:39,61.504911,23.764314,49.8,152.0797699,19
69820,2019-07-04 06:26:40,61.504908,23.764308,49.8,152.0797699,19
69930,2019-07-04 06:26:40,61.504904,23.764302,49.8,152.0797699,19
70030,2019-07-04 06:26:40,61.504901,23.764297,49.8,152.0797699,19
70130,2019-07-04 06:26:40,61.504897,23.764291,49.8,152.0797699,19
70230,2019-07-04 06:26:40,61.504894,23.764285,49.8,152.0797699,19
70330,2019-07-04 06:26:40,61.50489,23.764279,49.8,152.0797699,19
70440,2019-07-04 06:26:40,61.504887,23.764274,49.8,152.0797699,19
70540,2019-07-04 06:26:40,61.504883,23.764267,49.8,152.0797699,19
70640,2019-07-04 06:26:40,61.504879,23.764261,49.8,152.0797699,19
70740,2019-07-04 06:26:41,61.504875,23.764255,49.8,152.0797699,19
70840,2019-07-04 06:26:41,61.504872,23.764249,49.7,151.9797699,19
70950,2019-07-04 06:26:41,61.50487,23.764244,49.7,151.9797699,19
71050,2019-07-04 06:26:41,61.504867,23.764239,49.6,151.8797699,19
71150,2019-07-04 06:26:41,61.504863,23.764232,49.6,151.8797699,19
71250,2019-07-04 06:26:41,61.50486,23.764226,49.6,151.8797699,19
71350,2019-07-04 06:26:41,61.504856,23.764219,49.6,151.8797699,19
71450,2019-07-04 06:26:41,61.504852,23.764213,49.6,151.8797699,19
71550,2019-07-04 06:26:41,61.504849,23.764207,49.6,151.8797699,19
71560,2019-07-04 06:26:41,61.504845,23.764201,49.6,151.8797699,19
71750,2019-07-04 06:26:42,61.504841,23.764195,49.6,151.8797699,19
71760,2019-07-04 06:26:42,61.504837,23.764189,49.6,151.8797699,19
71860,2019-07-04 06:26:42,61.504834,23.764184,49.6,151.8797699,19
72080,2019-07-04 06:26:42,61.50483,23.764178,49.6,151.8797699,19
72090,2019-07-04 06:26:42,61.504827,23.764173,49.6,151.8797699,19
72180,2019-07-04 06:26:42,61.504824,23.764169,49.7,151.9797699,19
72280,2019-07-04 06:26:42,61.50482,23.764163,49.7,151.9797699,19
72380,2019-07-04 06:26:42,61.504816,23.764158,49.7,151.9797699,19
72480,2019-07-04 06:26:42,61.504813,23.764152,49.7,151.9797699,19
72590,2019-07-04 06:26:42,61.504809,23.764147,49.7,151.9797699,19
72690,2019-07-04 06:26:42,61.504805,23.764142,49.7,151.9797699,19
72790,2019-07-04 06:26:43,61.504801,23.764136,49.7,151.9797699,19
72900,2019-07-04 06:26:43,61.504798,23.764131,49.7,151.9797699,19
73000,2019-07-04 06:26:43,61.504796,23.764127,49.7,151.9797699,19
73100,2019-07-04 06:26:43,61.504791,23.764121,49.7,151.9797699,19
73200,2019-07-04 06:26:43,61.504788,23.764115,49.7,151.9797699,19
73300,2019-07-04 06:26:43,61.504784,23.764109,49.7,151.9797699,19
73410,2019-07-04 06:26:43,61.50478,23.764103,49.7,151.9797699,19
73500,2019-07-04 06:26:43,61.504776,23.764096,49.7,151.9797699,19
73610,2019-07-04 06:26:43,61.504772,23.764091,49.8,152.0797699,19
73710,2019-07-04 06:26:43,61.504768,23.764086,49.8,152.0797699,19
73810,2019-07-04 06:26:44,61.504765,23.76408,49.8,152.0797699,19
73920,2019-07-04 06:26:44,61.504761,23.764075,49.8,152.0797699,19
74020,2019-07-04 06:26:44,61.504757,23.76407,49.9,152.1797699,19
74120,2019-07-04 06:26:44,61.504753,23.764064,49.9,152.1797699,19
74230,2019-07-04 06:26:44,61.50475,23.764059,49.9,152.1797699,19
74330,2019-07-04 06:26:44,61.504746,23.764052,49.9,152.1797699,19
74430,2019-07-04 06:26:44,61.504742,23.764046,49.9,152.1797699,19
74540,2019-07-04 06:26:44,61.504739,23.764041,49.9,152.1797699,19
74640,2019-07-04 06:26:44,61.504735,23.764036,49.9,152.1797699,19
74740,2019-07-04 06:26:45,61.504732,23.764031,49.9,152.1797699,19
74850,2019-07-04 06:26:45,61.504728,23.764026,50,152.2797699,19
74950,2019-07-04 06:26:45,61.504725,23.764021,50,152.2797699,19
75050,2019-07-04 06:26:45,61.504722,23.764016,50,152.2797699,19
75060,2019-07-04 06:26:45,61.504718,23.764011,50,152.2797699,19
75150,2019-07-04 06:26:45,61.504714,23.764006,50.1,152.3797699,19
75250,2019-07-04 06:26:45,61.50471,23.764001,50.1,152.3797699,19
75450,2019-07-04 06:26:45,61.504707,23.763996,50.1,152.3797699,19
75550,2019-07-04 06:26:45,61.504703,23.76399,50.1,152.3797699,19
75560,2019-07-04 06:26:45,61.5047,23.763985,50.1,152.3797699,19
75660,2019-07-04 06:26:45,61.504696,23.763979,50.1,152.3797699,19
75860,2019-07-04 06:26:46,61.504689,23.763968,50.2,152.4797699,19
75960,2019-07-04 06:26:46,61.504686,23.763963,50.2,152.4797699,19
76070,2019-07-04 06:26:46,61.504682,23.763958,50.2,152.4797699,19
76170,2019-07-04 06:26:46,61.504679,23.763952,50.2,152.4797699,19
76270,2019-07-04 06:26:46,61.504675,23.763946,50.2,152.4797699,19
76380,2019-07-04 06:26:46,61.504671,23.763941,50.2,152.4797699,19
76480,2019-07-04 06:26:46,61.504668,23.763935,50.2,152.4797699,19
76580,2019-07-04 06:26:46,61.504665,23.763929,50.2,152.4797699,19
76680,2019-07-04 06:26:46,61.504661,23.763923,50.2,152.4797699,19
76780,2019-07-04 06:26:47,61.504658,23.763917,50.2,152.4797699,19
76890,2019-07-04 06:26:47,61.504654,23.763911,50.2,152.4797699,19
77000,2019-07-04 06:26:47,61.504651,23.763905,50.3,152.5797699,19
77100,2019-07-04 06:26:47,61.504647,23.763899,50.3,152.5797699,19
77200,2019-07-04 06:26:47,61.504644,23.763894,50.2,152.4797699,19
77300,2019-07-04 06:26:47,61.50464,23.763889,50.3,152.5797699,19
77400,2019-07-04 06:26:47,61.504636,23.763883,50.3,152.5797699,19
77500,2019-07-04 06:26:47,61.504633,23.763877,50.3,152.5797699,19
77610,2019-07-04 06:26:47,61.504629,23.763872,50.3,152.5797699,19
77700,2019-07-04 06:26:47,61.504625,23.763866,50.3,152.5797699,19
77810,2019-07-04 06:26:48,61.504621,23.76386,50.4,152.6797699,19
77910,2019-07-04 06:26:48,61.504618,23.763854,50.4,152.6797699,19
78020,2019-07-04 06:26:48,61.504614,23.763848,50.4,152.6797699,19
78110,2019-07-04 06:26:48,61.504611,23.763843,50.4,152.6797699,19
78220,2019-07-04 06:26:48,61.504608,23.763838,50.5,152.7797699,19
78320,2019-07-04 06:26:48,61.504604,23.763832,50.5,152.7797699,19
78420,2019-07-04 06:26:48,61.5046,23.763826,50.5,152.7797699,19
78530,2019-07-04 06:26:48,61.504596,23.76382,50.4,152.6797699,19
78630,2019-07-04 06:26:48,61.504593,23.763815,50.4,152.6797699,19
78730,2019-07-04 06:26:49,61.504589,23.763809,50.4,152.6797699,19
78930,2019-07-04 06:26:49,61.504582,23.763797,50.3,152.5797699,19
79040,2019-07-04 06:26:49,61.50458,23.763793,50.3,152.5797699,19
79140,2019-07-04 06:26:49,61.504576,23.763787,50.3,152.5797699,19
79240,2019-07-04 06:26:49,61.504572,23.763781,50.3,152.5797699,19
79340,2019-07-04 06:26:49,61.504569,23.763774,50.3,152.5797699,19
79450,2019-07-04 06:26:49,61.504564,23.763767,50.3,152.5797699,19
79550,2019-07-04 06:26:49,61.504561,23.76376,50.3,152.5797699,19
79650,2019-07-04 06:26:49,61.504557,23.763754,50.3,152.5797699,19
79660,2019-07-04 06:26:49,61.504554,23.763747,50.2,152.4797699,19
79750,2019-07-04 06:26:50,61.50455,23.763742,50.2,152.4797699,19
79860,2019-07-04 06:26:50,61.504547,23.763735,50.2,152.4797699,19
79960,2019-07-04 06:26:50,61.504543,23.76373,50.2,152.4797699,19
80060,2019-07-04 06:26:50,61.50454,23.763723,50.2,152.4797699,19
80270,2019-07-04 06:26:50,61.504537,23.763717,50.2,152.4797699,19
80370,2019-07-04 06:26:50,61.50453,23.763704,50.1,152.3797699,19
80470,2019-07-04 06:26:50,61.504527,23.763698,50.2,152.4797699,19
80570,2019-07-04 06:26:50,61.504523,23.763692,50.2,152.4797699,19
80680,2019-07-04 06:26:50,61.50452,23.763686,50.2,152.4797699,19
80780,2019-07-04 06:26:51,61.504516,23.763679,50.2,152.4797699,18
80880,2019-07-04 06:26:51,61.504513,23.763674,50.2,152.4797699,18
80980,2019-07-04 06:26:51,61.504509,23.763668,50.2,152.4797699,19
81190,2019-07-04 06:26:51,61.504502,23.763656,50.2,152.4797699,19
81290,2019-07-04 06:26:51,61.504499,23.76365,50.2,152.4797699,19
81390,2019-07-04 06:26:51,61.504495,23.763644,50.2,152.4797699,18
81490,2019-07-04 06:26:51,61.504492,23.763638,50.2,152.4797699,18
81590,2019-07-04 06:26:51,61.504488,23.763632,50.2,152.4797699,18
81690,2019-07-04 06:26:51,61.504485,23.763626,50.2,152.4797699,18
81800,2019-07-04 06:26:52,61.504482,23.76362,50.2,152.4797699,18
81890,2019-07-04 06:26:52,61.504478,23.763614,50.2,152.4797699,18
82000,2019-07-04 06:26:52,61.504475,23.763608,50.1,152.3797699,19
82110,2019-07-04 06:26:52,61.504471,23.763602,50.1,152.3797699,19
82200,2019-07-04 06:26:52,61.504467,23.763596,50.1,152.3797699,19
82300,2019-07-04 06:26:52,61.504464,23.76359,50.2,152.4797699,19
82400,2019-07-04 06:26:52,61.504461,23.763584,50.2,152.4797699,19
82500,2019-07-04 06:26:52,61.504458,23.763578,50.1,152.3797699,19
82610,2019-07-04 06:26:52,61.504455,23.763573,50.1,152.3797699,18
82820,2019-07-04 06:26:53,61.504448,23.76356,50.1,152.3797699,19
82920,2019-07-04 06:26:53,61.504445,23.763555,50.1,152.3797699,19
83020,2019-07-04 06:26:53,61.504442,23.763549,50.1,152.3797699,19
83120,2019-07-04 06:26:53,61.504438,23.763543,50.1,152.3797699,19
83220,2019-07-04 06:26:53,61.504435,23.763536,50,152.2797699,19
83320,2019-07-04 06:26:53,61.504431,23.76353,50,152.2797699,19
83420,2019-07-04 06:26:53,61.504428,23.763523,50,152.2797699,19
83530,2019-07-04 06:26:53,61.504424,23.763517,49.9,152.1797699,19
83620,2019-07-04 06:26:53,61.50442,23.76351,49.9,152.1797699,19
83730,2019-07-04 06:26:53,61.504417,23.763504,49.9,152.1797699,19
83830,2019-07-04 06:26:54,61.504414,23.763498,49.9,152.1797699,19
83930,2019-07-04 06:26:54,61.50441,23.763492,50,152.2797699,19
84030,2019-07-04 06:26:54,61.504407,23.763487,50,152.2797699,19
84140,2019-07-04 06:26:54,61.504403,23.763481,50,152.2797699,19
84240,2019-07-04 06:26:54,61.5044,23.763476,50,152.2797699,19
84340,2019-07-04 06:26:54,61.504396,23.76347,50,152.2797699,19
84450,2019-07-04 06:26:54,61.504392,23.763464,50,152.2797699,19
84550,2019-07-04 06:26:54,61.504389,23.763458,49.9,152.1797699,19
84560,2019-07-04 06:26:54,61.504385,23.763452,49.9,152.1797699,19
84750,2019-07-04 06:26:55,61.504382,23.763446,49.9,152.1797699,19
84760,2019-07-04 06:26:55,61.504378,23.763439,50,152.2797699,19
84860,2019-07-04 06:26:55,61.504376,23.763435,49.9,152.1797699,19
84960,2019-07-04 06:26:55,61.504373,23.76343,49.9,152.1797699,19
85070,2019-07-04 06:26:55,61.504369,23.763423,49.9,152.1797699,19
85170,2019-07-04 06:26:55,61.504365,23.763417,49.9,152.1797699,19
85270,2019-07-04 06:26:55,61.504362,23.763412,49.9,152.1797699,19
85370,2019-07-04 06:26:55,61.504358,23.763405,49.9,152.1797699,19
85480,2019-07-04 06:26:55,61.504354,23.763399,49.9,152.1797699,19
85580,2019-07-04 06:26:55,61.504351,23.763393,49.9,152.1797699,19
85680,2019-07-04 06:26:55,61.504347,23.763387,49.9,152.1797699,19
85780,2019-07-04 06:26:56,61.504344,23.763381,49.9,152.1797699,19
85880,2019-07-04 06:26:56,61.50434,23.763374,49.8,152.0797699,19
85980,2019-07-04 06:26:56,61.504337,23.763368,49.8,152.0797699,19
86090,2019-07-04 06:26:56,61.504334,23.763362,49.9,152.1797699,19
86190,2019-07-04 06:26:56,61.50433,23.763356,49.8,152.0797699,19
86290,2019-07-04 06:26:56,61.504327,23.763351,49.9,152.1797699,19
86390,2019-07-04 06:26:56,61.504324,23.763345,49.8,152.0797699,19
86500,2019-07-04 06:26:56,61.50432,23.763339,49.8,152.0797699,19
86600,2019-07-04 06:26:56,61.504317,23.763334,49.8,152.0797699,19
86700,2019-07-04 06:26:56,61.504313,23.763328,49.8,152.0797699,19
86800,2019-07-04 06:26:57,61.50431,23.763322,49.8,152.0797699,19
86900,2019-07-04 06:26:57,61.504307,23.763316,49.8,152.0797699,19
87000,2019-07-04 06:26:57,61.504303,23.763311,49.8,152.0797699,19
87100,2019-07-04 06:26:57,61.5043,23.763304,49.7,151.9797699,19
87210,2019-07-04 06:26:57,61.504296,23.763298,49.7,151.9797699,19
87320,2019-07-04 06:26:57,61.504292,23.763291,49.8,152.0797699,19
87420,2019-07-04 06:26:57,61.504289,23.763285,49.7,151.9797699,19
87520,2019-07-04 06:26:57,61.504285,23.763278,49.7,151.9797699,19
87620,2019-07-04 06:26:57,61.504282,23.763272,49.7,151.9797699,19
87720,2019-07-04 06:26:57,61.504278,23.763266,49.7,151.9797699,19
87820,2019-07-04 06:26:58,61.504275,23.763259,49.7,151.9797699,19
87920,2019-07-04 06:26:58,61.504272,23.763253,49.7,151.9797699,19
88020,2019-07-04 06:26:58,61.504268,23.763247,49.6,151.8797699,19
88130,2019-07-04 06:26:58,61.504265,23.763241,49.6,151.8797699,19
88230,2019-07-04 06:26:58,61.504261,23.763234,49.7,151.9797699,19
88330,2019-07-04 06:26:58,61.504258,23.763227,49.6,151.8797699,19
88440,2019-07-04 06:26:58,61.504254,23.763221,49.6,151.8797699,19
88530,2019-07-04 06:26:58,61.504251,23.763215,49.6,151.8797699,19
88640,2019-07-04 06:26:58,61.504247,23.763208,49.6,151.8797699,19
88740,2019-07-04 06:26:59,61.504244,23.763202,49.6,151.8797699,19
88840,2019-07-04 06:26:59,61.504241,23.763196,49.5,151.7797699,19
88940,2019-07-04 06:26:59,61.504237,23.76319,49.5,151.7797699,19
89040,2019-07-04 06:26:59,61.504234,23.763184,49.5,151.7797699,19
89140,2019-07-04 06:26:59,61.504231,23.763178,49.5,151.7797699,19
89250,2019-07-04 06:26:59,61.504227,23.763171,49.5,151.7797699,19
89350,2019-07-04 06:26:59,61.504224,23.763165,49.5,151.7797699,19
89450,2019-07-04 06:26:59,61.50422,23.763159,49.5,151.7797699,19
89550,2019-07-04 06:26:59,61.504217,23.763153,49.5,151.7797699,19
89560,2019-07-04 06:26:59,61.504213,23.763146,49.6,151.8797699,19
89760,2019-07-04 06:27:00,61.50421,23.763141,49.6,151.8797699,19
89860,2019-07-04 06:27:00,61.504206,23.763135,49.6,151.8797699,19
89960,2019-07-04 06:27:00,61.504199,23.763122,49.5,151.7797699,19
90060,2019-07-04 06:27:00,61.504196,23.763116,49.5,151.7797699,19
90170,2019-07-04 06:27:00,61.504193,23.763109,49.5,151.7797699,19
90270,2019-07-04 06:27:00,61.50419,23.763103,49.5,151.7797699,19
90370,2019-07-04 06:27:00,61.504187,23.763096,49.5,151.7797699,19
90470,2019-07-04 06:27:00,61.504183,23.763088,49.5,151.7797699,19
90570,2019-07-04 06:27:00,61.50418,23.763082,49.5,151.7797699,19
90670,2019-07-04 06:27:00,61.504177,23.763076,49.5,151.7797699,19
90780,2019-07-04 06:27:01,61.504173,23.763069,49.6,151.8797699,19
90880,2019-07-04 06:27:01,61.504171,23.763065,49.6,151.8797699,19
90980,2019-07-04 06:27:01,61.504168,23.763059,49.6,151.8797699,19
91080,2019-07-04 06:27:01,61.504164,23.763053,49.6,151.8797699,19
91180,2019-07-04 06:27:01,61.50416,23.763047,49.7,151.9797699,19
91290,2019-07-04 06:27:01,61.504156,23.763039,49.7,151.9797699,19
91390,2019-07-04 06:27:01,61.504152,23.763033,49.8,152.0797699,19
91500,2019-07-04 06:27:01,61.504148,23.763027,49.8,152.0797699,19
91600,2019-07-04 06:27:01,61.504145,23.763022,49.8,152.0797699,19
91700,2019-07-04 06:27:01,61.504142,23.763017,49.8,152.0797699,19
91800,2019-07-04 06:27:02,61.504138,23.763011,49.8,152.0797699,19
91900,2019-07-04 06:27:02,61.504135,23.763006,49.9,152.1797699,19
92000,2019-07-04 06:27:02,61.504131,23.763,49.9,152.1797699,19
92110,2019-07-04 06:27:02,61.504128,23.762994,49.9,152.1797699,19
92200,2019-07-04 06:27:02,61.504124,23.762989,49.8,152.0797699,19
92310,2019-07-04 06:27:02,61.504121,23.762983,49.9,152.1797699,19
92410,2019-07-04 06:27:02,61.504117,23.762978,49.9,152.1797699,19
92520,2019-07-04 06:27:02,61.504113,23.762972,49.9,152.1797699,19
92620,2019-07-04 06:27:02,61.50411,23.762965,50,152.2797699,19
92720,2019-07-04 06:27:02,61.504106,23.76296,50,152.2797699,19
92820,2019-07-04 06:27:03,61.504103,23.762954,50,152.2797699,19
92920,2019-07-04 06:27:03,61.504099,23.762949,50,152.2797699,19
93020,2019-07-04 06:27:03,61.504097,23.762945,50,152.2797699,19
93120,2019-07-04 06:27:03,61.504093,23.76294,50,152.2797699,19
93220,2019-07-04 06:27:03,61.504089,23.762934,50,152.2797699,19
93330,2019-07-04 06:27:03,61.504086,23.762928,50,152.2797699,19
93430,2019-07-04 06:27:03,61.504082,23.762922,50,152.2797699,19
93550,2019-07-04 06:27:03,61.504078,23.762915,50,152.2797699,19
93650,2019-07-04 06:27:03,61.504075,23.762909,50,152.2797699,19
