time(millisecond),datetime(utc),latitude,longitude,height_above_takeoff(meters),height_above_ground_at_drone_location(meters),ground_elevation_at_drone_location(meters),altitude_above_seaLevel(meters),speed(m/s),distance(meters),satellites,gpslevel,voltage(v),max_altitude(meters),max_ascent(meters),max_speed(m/s),max_distance(meters), xSpeed(m/s), ySpeed(m/s), zSpeed(m/s), compass_heading(degrees), pitch(degrees), roll(degrees),isPhoto,isVideo,rc_elevator,rc_aileron,rc_throttle,rc_rudder,gimbal_heading(degrees),gimbal_pitch(degrees),battery_percent,voltageCell1,voltageCell2,voltageCell3,voltageCell4,voltageCell5,voltageCell6,current(A),battery_temperature(c),altitude(meters),ascent(meters),flycStateRaw,flycState,message
0,2019-07-04 06:25:30,61.504732,23.763994,0.4,Available with any HD 360 subscription,Available with any HD 360 subscription,102.6797699,0.954,0,11,0,24.54,102.6797699,0.4,0.954,0,0.3,-0.1,-0.9,47.5, 0.6, 2.7,0,0,1024,1024,1442,1024,47.3,0,81,4.103,4.105,4.085,4.105,4.106,4.099,4.12,33,102.6797699,0.4,6,P-GPS,
100,2019-07-04 06:25:30,61.504732,23.763994,0.5,,,102.7797699,1.158,0,11,0,24.54,102.7797699,0.5,1.158,0,0.3,-0.2,-1.1,47.5, 0.5, 3.2,0,0,1024,1024,1491,1024,47.3,0,81,4.103,4.105,4.085,4.105,4.106,4.099,4.12,33,102.7797699,0.5,6,P-GPS,
210,2019-07-04 06:25:30,61.504733,23.763994,0.6,,,102.8797699,1.446,0.111206,11,0,24.54,102.8797699,0.6,1.446,0.111206,0.3,-0.2,-1.4,47.5, 0.1, 4,0,0,1024,1024,1496,1024,47.3,0,81,4.103,4.105,4.085,4.105,4.106,4.099,4.12,33,102.8797699,0.6,6,P-GPS,
310,2019-07-04 06:25:30,61.504733,23.763993,0.8,,,103.0797699,1.729,0.123214,11,0,24.54,103.0797699,0.8,1.729,0.123214,0.3,-0.1,-1.7,47.4, 0, 4,0,0,1024,1024,1515,1024,47.3,0,81,4.103,4.105,4.085,4.105,4.106,4.099,4.12,33,103.0797699,0.8,6,P-GPS,
410,2019-07-04 06:25:30,61.504733,23.763993,1,,,103.2797699,2.124,0.123214,12,0,24.54,103.2797699,1,2.124,0.123214,0.3,-0.1,-2.1,47.2, 0.2, 4,0,0,1024,1024,1473,1024,47.3,0,81,4.103,4.105,4.085,4.105,4.106,4.099,4.12,33,103.2797699,1,6,P-GPS,
510,2019-07-04 06:25:30,61.504734,23.763993,1.2,,,103.4797699,2.328,0.228653,12,0,24.54,103.4797699,1.2,2.328,0.228653,0.3,-0.2,-2.3,47.1, 0.5, 4.3,0,0,1024,1024,1460,1024,47.3,0,81,4.103,4.105,4.085,4.105,4.106,4.099,4.12,33,103.4797699,1.2,6,P-GPS,
610,2019-07-04 06:25:30,61.504734,23.763993,1.5,,,103.7797699,2.52,0.228653,13,0,24.54,103.7797699,1.5,2.52,0.228653,0.3,-0.1,-2.5,47, 0.9, 4.8,0,0,1024,1024,1476,1024,47.3,0,81,4.103,4.105,4.085,4.105,4.106,4.099,4.12,33,103.7797699,1.5,6,P-GPS,
720,2019-07-04 06:25:30,61.504734,23.763993,1.7,,,103.9797699,2.516,0.228653,13,0,24.54,103.9797699,1.7,2.52,0.228653,0.2,-0.2,-2.5,47.1, 1.3, 4.9,0,0,1024,1024,1452,1024,47.3,0,81,4.103,4.105,4.085,4.105,4.106,4.099,4.12,33,103.9797699,1.7,6,P-GPS,
820,2019-07-04 06:25:31,61.504735,23.763992,2,,,104.2797699,2.516,0.350086,13,0,24.54,104.2797699,2,2.52,0.350086,0.2,-0.2,-2.5,47.1, 1.5, 4.8,0,0,1024,1024,1465,1024,47.3,0,81,4.103,4.105,4.085,4.105,4.106,4.099,4.12,33,104.2797699,2,6,P-GPS,
920,2019-07-04 06:25:31,61.504735,23.763991,2.2,,,104.4797699,2.417,0.369641,13,0,24.54,104.4797699,2.2,2.52,0.369641,0.2,-0.2,-2.4,47.2, 1.4, 5,0,0,1024,1024,1465,1024,47.3,0,81,4.103,4.105,4.085,4.105,4.106,4.099,4.12,33,104.4797699,2.2,6,P-GPS,
1020,2019-07-04 06:25:31,61.504736,23.76399,2.5,,,104.7797699,2.417,0.492855,13,0,24.54,104.7797699,2.5,2.52,0.492855,0.2,-0.2,-2.4,47.3, 0.8, 4.8,0,0,1024,1024,1456,1024,47.3,0,81,4.103,4.105,4.085,4.105,4.106,4.099,4.12,33,104.7797699,2.5,6,P-GPS,
1120,2019-07-04 06:25:31,61.504736,23.763989,2.7,,,104.9797699,2.41,0.517918,13,0,24.54,104.9797699,2.7,2.52,0.517918,0.1,-0.2,-2.4,47.4, 0.3, 4.7,0,0,1024,1024,1481,1024,47.3,0,81,4.103,4.105,4.085,4.105,4.106,4.099,4.12,33,104.9797699,2.7,6,P-GPS,
1230,2019-07-04 06:25:31,61.504737,23.763986,3,,,105.2797699,2.417,0.699513,13,0,24.54,105.2797699,3,2.52,0.699513,0.2,-0.2,-2.4,47.5, -0.2, 5,0,0,1024,1024,1491,1024,47.3,0,81,4.103,4.105,4.085,4.105,4.106,4.099,4.12,33,105.2797699,3,6,P-GPS,
1320,2019-07-04 06:25:31,61.504737,23.763986,3.2,,,105.4797699,2.41,0.699513,13,0,24.54,105.4797699,3.2,2.52,0.699513,0.1,-0.2,-2.4,47.5, -0.6, 5.2,0,0,1024,1024,1492,1024,47.3,0,81,4.103,4.105,4.085,4.105,4.106,4.099,4.12,33,105.4797699,3.2,6,P-GPS,
1430,2019-07-04 06:25:31,61.504737,23.763985,3.4,,,105.6797699,2.404,0.732919,13,0,24.54,105.6797699,3.4,2.52,0.732919,0.1,-0.1,-2.4,47.5, -0.6, 4.7,0,0,1024,1024,1503,1024,47.3,0,81,4.103,4.105,4.085,4.105,4.106,4.099,4.12,33,105.6797699,3.4,6,P-GPS,
1530,2019-07-04 06:25:31,61.504737,23.763985,3.7,,,105.9797699,2.502,0.732919,13,0,24.54,105.9797699,3.7,2.52,0.732919,0.1,0,-2.5,47.4, -0.2, 3.9,0,0,1024,1024,1527,1024,47.3,0,81,4.103,4.105,4.085,4.105,4.106,4.099,4.12,33,105.9797699,3.7,6,P-GPS,
1630,2019-07-04 06:25:31,61.504737,23.763986,3.9,,,106.1797699,2.602,0.699513,13,0,24.54,106.1797699,3.9,2.602,0.732919,0.1,0,-2.6,47.3, 0.1, 2.8,0,0,1024,1024,1561,1024,47.3,0,81,4.103,4.105,4.085,4.105,4.106,4.099,4.12,33,106.1797699,3.9,6,P-GPS,
1730,2019-07-04 06:25:32,61.504737,23.763986,4.2,,,106.4797699,2.802,0.699513,13,0,24.54,106.4797699,4.2,2.802,0.732919,0.1,0,-2.8,47.4, 0.5, 2.3,0,0,1024,1024,1575,1024,47.3,0,81,4.103,4.105,4.085,4.105,4.106,4.099,4.12,33,106.4797699,4.2,6,P-GPS,
1830,2019-07-04 06:25:32,61.504737,23.763987,4.5,,,106.7797699,3.002,0.668652,12,0,24.54,106.7797699,4.5,3.002,0.732919,0.1,0,-3,47.4, 0.9, 2.2,0,0,1024,1024,1628,1024,47.3,0,81,4.103,4.105,4.085,4.105,4.106,4.099,4.12,33,106.7797699,4.5,6,P-GPS,
1940,2019-07-04 06:25:32,61.504737,23.763987,4.8,,,107.0797699,3.303,0.668652,12,0,24.54,107.0797699,4.8,3.303,0.732919,0.1,0.1,-3.3,47.4, 1.2, 2,0,0,1024,1024,1656,1024,47.3,0,81,4.103,4.105,4.085,4.105,4.106,4.099,4.12,33,107.0797699,4.8,6,P-GPS,
2040,2019-07-04 06:25:32,61.504737,23.763988,5.2,,,107.4797699,3.603,0.640705,13,0,24.222,107.4797699,5.2,3.603,0.732919,0.1,0.1,-3.6,47.3, 1.1, 1.6,0,0,1024,1024,1668,1024,47.3,0,81,4.103,4.105,4.085,4.105,4.106,4.099,30.228,33,107.4797699,5.2,6,P-GPS,
2140,2019-07-04 06:25:32,61.504737,23.763989,5.5,,,107.7797699,4.001,0.616069,13,0,24.222,107.7797699,5.5,4.001,0.732919,0,0.1,-4,47.3, 1.4, 0.9,0,0,1024,1024,1684,1024,47.3,0,81,4.103,4.105,4.085,4.105,4.106,4.099,30.228,33,107.7797699,5.5,6,P-GPS,
2240,2019-07-04 06:25:32,61.504737,23.76399,5.9,,,108.1797699,4.301,0.595153,12,0,24.222,108.1797699,5.9,4.301,0.732919,0,0.1,-4.3,47.2, 1.8, 1,0,0,1024,1024,1684,1024,47.3,0,81,4.103,4.105,4.085,4.105,4.106,4.099,30.228,33,108.1797699,5.9,6,P-GPS,
2350,2019-07-04 06:25:32,61.504737,23.76399,6.4,,,108.6797699,4.601,0.595153,12,0,24.222,108.6797699,6.4,4.601,0.732919,0,0.1,-4.6,47.2, 2.6, 1.3,0,0,1024,1024,1684,1024,47.3,0,81,4.103,4.105,4.085,4.105,4.106,4.099,30.228,33,108.6797699,6.4,6,P-GPS,
2550,2019-07-04 06:25:32,61.504738,23.763991,7.3,,,109.5797699,4.9,0.685958,12,0,24.222,109.5797699,7.3,4.9,0.732919,0,0,-4.9,47.1, 3.3, 0.3,0,0,1024,1024,1684,1024,47.3,0,81,4.103,4.105,4.085,4.105,4.106,4.099,30.228,33,109.5797699,7.3,6,P-GPS,
2750,2019-07-04 06:25:33,61.504738,23.763991,8,,,110.2797699,4.9,0.685958,12,0,24.222,110.2797699,8,4.9,0.732919,0,0,-4.9,47.2, 3.3, 0.7,0,0,1024,1024,1684,1024,47.3,0,81,4.103,4.105,4.085,4.105,4.106,4.099,30.228,33,110.2797699,8,6,P-GPS,
2850,2019-07-04 06:25:33,61.504738,23.763991,8.4,,,110.6797699,4.9,0.685958,13,0,24.222,110.6797699,8.4,4.9,0.732919,0,0,-4.9,47.2, 3, 0.7,0,0,1024,1024,1684,1024,47.3,0,81,4.103,4.105,4.085,4.105,4.106,4.099,30.228,33,110.6797699,8.4,6,P-GPS,
2960,2019-07-04 06:25:33,61.504738,23.76399,8.8,,,111.0797699,4.9,0.700173,13,0,23.604,111.0797699,8.8,4.9,0.732919,0,0,-4.9,47.2, 2.1, 0.7,0,0,1024,1024,1684,1024,47.3,0,81,3.912,3.93,3.886,3.938,3.937,3.911,28.714,33,111.0797699,8.8,6,P-GPS,
3060,2019-07-04 06:25:33,61.504738,23.76399,9.7,,,111.9797699,4.9,0.700173,12,0,23.604,111.9797699,9.7,4.9,0.732919,0,0,-4.9,47.2, 1.2, 1.3,0,0,1024,1024,1684,1024,47.3,0,81,3.912,3.93,3.886,3.938,3.937,3.911,28.714,33,111.9797699,9.7,6,P-GPS,
3160,2019-07-04 06:25:33,61.504738,23.76399,10.1,,,112.3797699,4.9,0.700173,12,0,23.604,112.3797699,10.1,4.9,0.732919,0,0,-4.9,47.2, 1.3, 1.7,0,0,1024,1024,1684,1024,47.3,0,81,3.912,3.93,3.886,3.938,3.937,3.911,28.714,33,112.3797699,10.1,6,P-GPS,
3260,2019-07-04 06:25:33,61.504738,23.763991,10.7,,,112.9797699,4.9,0.685958,12,0,23.604,112.9797699,10.7,4.9,0.732919,0,0,-4.9,47.2, 1.9, 1.6,0,0,1024,1024,1684,1024,47.3,0,81,3.912,3.93,3.886,3.938,3.937,3.911,28.714,33,112.9797699,10.7,6,P-GPS,
3360,2019-07-04 06:25:33,61.504738,23.763991,11.2,,,113.4797699,5,0.685958,14,0,23.604,113.4797699,11.2,5,0.732919,0,0,-5,47.2, 2.5, 1.2,0,0,1024,1024,1684,1024,47.3,0,81,3.912,3.93,3.886,3.938,3.937,3.911,28.714,33,113.4797699,11.2,6,P-GPS,
3460,2019-07-04 06:25:33,61.504739,23.763992,11.6,,,113.8797699,5,0.785641,14,0,23.604,113.8797699,11.6,5,0.785641,0,0,-5,47.1, 2.9, 0.7,0,0,1024,1024,1684,1024,47.3,0,81,3.912,3.93,3.886,3.938,3.937,3.911,28.714,33,113.8797699,11.6,6,P-GPS,
3560,2019-07-04 06:25:33,61.504739,23.763992,12.1,,,114.3797699,5,0.785641,13,0,23.604,114.3797699,12.1,5,0.785641,0,0,-5,47.1, 2.7, 0.5,0,0,1024,1024,1684,1024,47.3,0,81,3.912,3.93,3.886,3.938,3.937,3.911,28.714,33,114.3797699,12.1,6,P-GPS,
3670,2019-07-04 06:25:33,61.504738,23.763992,12.6,,,114.8797699,5,0.675621,13,0,23.604,114.8797699,12.6,5,0.785641,0,0,-5,47.1, 2.6, 0.5,0,0,1024,1024,1684,1024,47.3,0,81,3.912,3.93,3.886,3.938,3.937,3.911,28.714,33,114.8797699,12.6,6,P-GPS,
3770,2019-07-04 06:25:34,61.504739,23.763993,13.1,,,115.3797699,5,0.780249,13,0,23.604,115.3797699,13.1,5,0.785641,0,0,-5,47.1, 2.7, 0.6,0,0,1024,1024,1684,1024,47.3,0,81,3.912,3.93,3.886,3.938,3.937,3.911,28.714,33,115.3797699,13.1,6,P-GPS,
3870,2019-07-04 06:25:34,61.504739,23.763994,13.5,,,115.7797699,5,0.778443,13,0,23.604,115.7797699,13.5,5,0.785641,0,0,-5,47.2, 2.8, 0.8,0,0,1024,1024,1684,1024,47.3,0,81,3.912,3.93,3.886,3.938,3.937,3.911,28.714,33,115.7797699,13.5,6,P-GPS,
3980,2019-07-04 06:25:34,61.504738,23.763994,14.1,,,116.3797699,5,0.667237,14,0,23.25,116.3797699,14.1,5,0.785641,0,0,-5,47.3, 2.7, 0.7,0,0,1024,1024,1684,1024,47.3,0,81,3.912,3.93,3.886,3.938,3.937,3.911,39.236,33,116.3797699,14.1,6,P-GPS,
4080,2019-07-04 06:25:34,61.504738,23.763994,14.5,,,116.7797699,5,0.667237,14,0,23.25,116.7797699,14.5,5,0.785641,0,0,-5,47.4, 2.9, 0.4,0,0,1024,1024,1684,1024,47.3,0,81,3.912,3.93,3.886,3.938,3.937,3.911,39.236,33,116.7797699,14.5,6,P-GPS,
4180,2019-07-04 06:25:34,61.504738,23.763994,15,,,117.2797699,4.9,0.667237,15,0,23.25,117.2797699,15,5,0.785641,0,0,-4.9,47.4, 3.1, -0.1,0,0,1024,1024,1684,1024,47.3,0,81,3.912,3.93,3.886,3.938,3.937,3.911,39.236,33,117.2797699,15,6,P-GPS,
4280,2019-07-04 06:25:34,61.504738,23.763994,15.5,,,117.7797699,5,0.667237,15,0,23.25,117.7797699,15.5,5,0.785641,0,0,-5,47.3, 3.3, -0.6,0,0,1024,1024,1684,1024,47.3,0,81,3.912,3.93,3.886,3.938,3.937,3.911,39.236,33,117.7797699,15.5,6,P-GPS,
4380,2019-07-04 06:25:34,61.504738,23.763994,16,,,118.2797699,5,0.667237,16,0,23.25,118.2797699,16,5,0.785641,0,0,-5,47.3, 3.5, -0.2,0,0,1024,1024,1684,1024,47.3,0,81,3.912,3.93,3.886,3.938,3.937,3.911,39.236,33,118.2797699,16,6,P-GPS,
4480,2019-07-04 06:25:34,61.504738,23.763994,16.6,,,118.8797699,5,0.667237,16,0,23.25,118.8797699,16.6,5,0.785641,0,0,-5,47.3, 3.2, 0.4,0,0,1024,1024,1684,1024,47.3,0,81,3.912,3.93,3.886,3.938,3.937,3.911,39.236,33,118.8797699,16.6,6,P-GPS,
4580,2019-07-04 06:25:34,61.504738,23.763993,17.1,,,119.3797699,5.001,0.669343,17,0,23.25,119.3797699,17.1,5.001,0.785641,0,-0.1,-5,47.2, 2.9, 1.2,0,0,1024,1024,1684,1024,47.3,0,81,3.912,3.93,3.886,3.938,3.937,3.911,39.236,33,119.3797699,17.1,6,P-GPS,
4680,2019-07-04 06:25:34,61.504737,23.763993,17.6,,,119.8797699,5.001,0.558556,17,0,23.25,119.8797699,17.6,5.001,0.785641,0,-0.1,-5,47.2, 2.8, 1.7,0,0,1024,1024,1684,1024,47.3,0,81,3.912,3.93,3.886,3.938,3.937,3.911,39.236,33,119.8797699,17.6,6,P-GPS,
4790,2019-07-04 06:25:35,61.504737,23.763993,18.1,,,120.3797699,5,0.558556,16,0,23.25,120.3797699,18.1,5.001,0.785641,0,0,-5,47.2, 2.7, 1.7,0,0,1024,1024,1684,1024,47.3,0,81,3.912,3.93,3.886,3.938,3.937,3.911,39.236,33,120.3797699,18.1,6,P-GPS,
4890,2019-07-04 06:25:35,61.504737,23.763992,18.6,,,120.8797699,5.001,0.566065,16,0,23.25,120.8797699,18.6,5.001,0.785641,-0.1,0,-5,47.1, 2.8, 1.3,0,0,1024,1024,1684,1024,47.3,0,81,3.912,3.93,3.886,3.938,3.937,3.911,39.236,33,120.8797699,18.6,6,P-GPS,
4990,2019-07-04 06:25:35,61.504737,23.763992,19.2,,,121.4797699,5.001,0.566065,16,0,23.25,121.4797699,19.2,5.001,0.785641,-0.1,0,-5,47, 2.6, 0.7,0,0,1024,1024,1684,1024,47.3,0,81,3.912,3.93,3.886,3.938,3.937,3.911,39.236,33,121.4797699,19.2,6,P-GPS,
5090,2019-07-04 06:25:35,61.504737,23.763991,19.6,,,121.8797699,5.001,0.578363,16,0,23.25,121.8797699,19.6,5.001,0.785641,-0.1,0,-5,47, 2.6, 0.6,0,0,1024,1024,1684,1024,47.3,0,81,3.912,3.93,3.886,3.938,3.937,3.911,39.236,33,121.8797699,19.6,6,P-GPS,
5190,2019-07-04 06:25:35,61.504737,23.763991,20.2,,,122.4797699,5.001,0.578363,18,0,23.25,122.4797699,20.2,5.001,0.785641,-0.1,0,-5,47.1, 2.7, 0.8,0,0,1024,1024,1684,1024,47.3,0,81,3.912,3.93,3.886,3.938,3.937,3.911,39.236,33,122.4797699,20.2,6,P-GPS,
5290,2019-07-04 06:25:35,61.504736,23.76399,20.7,,,122.9797699,5.001,0.492855,18,0,23.25,122.9797699,20.7,5.001,0.785641,-0.1,0,-5,47.2, 2.5, 0.8,0,0,1024,1024,1684,1024,47.3,0,81,3.912,3.93,3.886,3.938,3.937,3.911,39.236,33,122.9797699,20.7,6,P-GPS,
5390,2019-07-04 06:25:35,61.504736,23.76399,21.2,,,123.4797699,5.005,0.492855,18,0,23.25,123.4797699,21.2,5.005,0.785641,-0.2,-0.1,-5,47.2, 1.7, 0.8,0,0,1024,1024,1684,1024,47.3,0,81,3.912,3.93,3.886,3.938,3.937,3.911,39.236,33,123.4797699,21.2,6,P-GPS,
5490,2019-07-04 06:25:35,61.504736,23.763989,21.7,,,123.9797699,5.004,0.517918,18,0,23.25,123.9797699,21.7,5.005,0.785641,-0.2,0,-5,47.2, 1.2, 0.6,0,0,1024,1024,1684,1024,47.3,0,81,3.912,3.93,3.886,3.938,3.937,3.911,39.236,33,123.9797699,21.7,6,P-GPS,
5600,2019-07-04 06:25:35,61.504736,23.763987,22.2,,,124.4797699,4.904,0.579478,19,0,23.25,124.4797699,22.2,5.005,0.785641,-0.2,0,-4.9,47.2, 1.1, 0.2,0,0,1024,1024,1684,1024,47.3,0,81,3.912,3.93,3.886,3.938,3.937,3.911,39.236,33,124.4797699,22.2,6,P-GPS,
5700,2019-07-04 06:25:35,61.504736,23.763987,22.7,,,124.9797699,4.904,0.579478,19,0,23.25,124.9797699,22.7,5.005,0.785641,-0.2,0,-4.9,47.3, 1.1, -0.4,0,0,1024,1024,1684,1024,47.3,0,81,3.912,3.93,3.886,3.938,3.937,3.911,39.236,33,124.9797699,22.7,6,P-GPS,
5800,2019-07-04 06:25:36,61.504735,23.763986,23.2,,,125.4797699,4.901,0.539861,19,0,23.25,125.4797699,23.2,5.005,0.785641,-0.1,0,-4.9,47.2, 0.8, -0.5,0,0,1024,1024,1684,1024,47.3,0,81,3.912,3.93,3.886,3.938,3.937,3.911,39.236,33,125.4797699,23.2,6,P-GPS,
5900,2019-07-04 06:25:36,61.504735,23.763985,23.7,,,125.9797699,4.901,0.582496,19,0,23.25,125.9797699,23.7,5.005,0.785641,-0.1,0,-4.9,47.2, 0.6, -0.1,0,0,1024,1024,1684,1024,47.3,0,81,3.912,3.93,3.886,3.938,3.937,3.911,39.236,33,125.9797699,23.7,6,P-GPS,
6000,2019-07-04 06:25:36,61.504735,23.763985,24.2,,,126.4797699,4.901,0.582496,19,0,23.052,126.4797699,24.2,5.005,0.785641,-0.1,0,-4.9,47.2, 0.4, -0.1,0,0,1024,1024,1684,1024,47.3,0,81,3.912,3.93,3.886,3.938,3.937,3.911,31.21,33,126.4797699,24.2,6,P-GPS,
6110,2019-07-04 06:25:36,61.504735,23.763984,24.8,,,127.0797699,4.901,0.626724,19,0,23.052,127.0797699,24.8,5.005,0.785641,-0.1,0,-4.9,47.3, 0.4, -0.3,0,0,1024,1024,1684,1024,47.3,0,81,3.912,3.93,3.886,3.938,3.937,3.911,31.21,33,127.0797699,24.8,6,P-GPS,
6210,2019-07-04 06:25:36,61.504735,23.763984,25.2,,,127.4797699,4.901,0.626724,19,0,23.052,127.4797699,25.2,5.005,0.785641,-0.1,0,-4.9,47.3, 0.8, -0.6,0,0,1024,1024,1684,1024,47.3,0,81,3.912,3.93,3.886,3.938,3.937,3.911,31.21,33,127.4797699,25.2,6,P-GPS,
6310,2019-07-04 06:25:36,61.504735,23.763984,25.7,,,127.9797699,4.901,0.626724,19,0,23.052,127.9797699,25.7,5.005,0.785641,-0.1,0,-4.9,47.2, 1.3, -0.7,0,0,1024,1024,1684,1024,47.3,0,81,3.912,3.93,3.886,3.938,3.937,3.911,31.21,33,127.9797699,25.7,6,P-GPS,
6420,2019-07-04 06:25:36,61.504734,23.763983,26.2,,,128.4797699,4.901,0.624548,19,0,23.052,128.4797699,26.2,5.005,0.785641,-0.1,0,-4.9,47.2, 1.5, -0.9,0,0,1024,1024,1684,1024,47.3,0,81,3.912,3.93,3.886,3.938,3.937,3.911,31.21,33,128.4797699,26.2,6,P-GPS,
6520,2019-07-04 06:25:36,61.504734,23.763983,26.7,,,128.9797699,4.801,0.624548,19,0,23.052,128.9797699,26.7,5.005,0.785641,-0.1,0,-4.8,47.3, 1.8, -1.1,0,0,1024,1024,1684,1024,47.3,0,81,3.912,3.93,3.886,3.938,3.937,3.911,31.21,33,128.9797699,26.7,6,P-GPS,
6620,2019-07-04 06:25:36,61.504734,23.763983,27.2,,,129.4797699,4.801,0.624548,19,0,23.052,129.4797699,27.2,5.005,0.785641,-0.1,0,-4.8,47.2, 2.3, -0.7,0,0,1024,1024,1684,1024,47.3,0,81,3.912,3.93,3.886,3.938,3.937,3.911,31.21,33,129.4797699,27.2,6,P-GPS,
6720,2019-07-04 06:25:36,61.504734,23.763984,27.7,,,129.9797699,4.802,0.575282,19,0,23.052,129.9797699,27.7,5.005,0.785641,-0.1,0.1,-4.8,47.1, 2.3, -0.6,0,0,1024,1024,1684,1024,47.3,0,81,3.912,3.93,3.886,3.938,3.937,3.911,31.21,33,129.9797699,27.7,6,P-GPS,
6820,2019-07-04 06:25:37,61.504733,23.763984,28.1,,,130.3797699,4.805,0.542078,19,0,23.052,130.3797699,28.1,5.005,0.785641,-0.2,0.1,-4.8,47.1, 1.6, -0.9,0,0,1024,1024,1684,1024,47.3,0,81,3.912,3.93,3.886,3.938,3.937,3.911,31.21,33,130.3797699,28.1,6,P-GPS,
6920,2019-07-04 06:25:37,61.504733,23.763984,28.6,,,130.8797699,4.905,0.542078,19,0,23.052,130.8797699,28.6,5.005,0.785641,-0.2,0.1,-4.9,47, 0.5, -1.7,0,0,1024,1024,1684,1024,47.3,0,81,3.912,3.93,3.886,3.938,3.937,3.911,31.21,33,130.8797699,28.6,6,P-GPS,
7030,2019-07-04 06:25:37,61.504733,23.763984,29.1,,,131.3797699,5.008,0.542078,19,0,23.052,131.3797699,29.1,5.008,0.785641,-0.2,0.2,-5,46.9, 0.5, -2.1,0,0,1024,1024,1684,1024,47.3,0,81,3.912,3.93,3.886,3.938,3.937,3.911,31.21,33,131.3797699,29.1,6,P-GPS,
7130,2019-07-04 06:25:37,61.504732,23.763984,29.7,,,131.9797699,5.118,0.530549,19,0,23.052,131.9797699,29.7,5.118,0.785641,-0.3,0.3,-5.1,46.8, 1.2, -3.3,0,0,1024,1024,1684,1024,47.3,0,81,3.912,3.93,3.886,3.938,3.937,3.911,31.21,33,131.9797699,29.7,6,P-GPS,
7230,2019-07-04 06:25:37,61.504732,23.763985,30.2,,,132.4797699,5.113,0.477494,19,0,23.052,132.4797699,30.2,5.118,0.785641,-0.2,0.3,-5.1,46.7, 2, -4.4,0,0,1024,1024,1684,1024,47.3,0,81,3.912,3.93,3.886,3.938,3.937,3.911,31.21,33,132.4797699,30.2,6,P-GPS,
7330,2019-07-04 06:25:37,61.504731,23.763985,30.8,,,133.0797699,5.113,0.490273,19,0,23.052,133.0797699,30.8,5.118,0.785641,-0.2,0.3,-5.1,46.7, 2.7, -5.5,0,0,1024,1024,1684,1024,47.3,0,81,3.912,3.93,3.886,3.938,3.937,3.911,31.21,33,133.0797699,30.8,6,P-GPS,
7440,2019-07-04 06:25:37,61.504731,23.763986,31.3,,,133.5797699,5.013,0.438766,19,0,23.052,133.5797699,31.3,5.118,0.785641,-0.2,0.3,-5,46.9, 3.7, -6.7,0,0,1024,1024,1684,1024,47.3,0,81,3.912,3.93,3.886,3.938,3.937,3.911,31.21,33,133.5797699,31.3,6,P-GPS,
7540,2019-07-04 06:25:37,61.504731,23.763986,31.8,,,134.0797699,4.91,0.438766,19,0,23.052,134.0797699,31.8,5.118,0.785641,-0.1,0.3,-4.9,47, 3.5, -7.3,0,0,1024,1024,1684,1024,47.3,0,81,3.912,3.93,3.886,3.938,3.937,3.911,31.21,33,134.0797699,31.8,6,P-GPS,
7640,2019-07-04 06:25:37,61.504731,23.763987,32.2,,,134.4797699,4.905,0.387676,19,0,23.052,134.4797699,32.2,5.118,0.785641,-0.1,0.2,-4.9,47, 3.2, -7.1,0,0,1024,1024,1684,1024,47.3,0,81,3.912,3.93,3.886,3.938,3.937,3.911,31.21,33,134.4797699,32.2,6,P-GPS,
7740,2019-07-04 06:25:38,61.504731,23.763987,32.7,,,134.9797699,4.904,0.387676,19,0,23.052,134.9797699,32.7,5.118,0.785641,0,0.2,-4.9,47.1, 3.3, -6.5,0,0,1024,1024,1684,1024,47.3,0,81,3.912,3.93,3.886,3.938,3.937,3.911,31.21,33,134.9797699,32.7,6,P-GPS,
7840,2019-07-04 06:25:38,61.50473,23.763987,33.2,,,135.4797699,4.901,0.43289,19,0,23.052,135.4797699,33.2,5.118,0.785641,0,0.1,-4.9,47.1, 3.7, -5.7,0,0,1024,1024,1684,1024,47.3,0,81,3.912,3.93,3.886,3.938,3.937,3.911,31.21,33,135.4797699,33.2,6,P-GPS,
7850,2019-07-04 06:25:38,61.50473,23.763988,33.6,,,135.8797699,4.901,0.388331,19,0,23.052,135.8797699,33.6,5.118,0.785641,0,0.1,-4.9,47.3, 4, -4.5,0,0,1024,1024,1684,1024,47.3,0,81,3.912,3.93,3.886,3.938,3.937,3.911,31.21,33,135.8797699,33.6,6,P-GPS,
7940,2019-07-04 06:25:38,61.50473,23.763988,34.1,,,136.3797699,5.001,0.388331,19,0,23.052,136.3797699,34.1,5.118,0.785641,0,0.1,-5,47.3, 4.6, -3.2,0,0,1024,1024,1684,1024,47.3,0,81,3.912,3.93,3.886,3.938,3.937,3.911,31.21,33,136.3797699,34.1,6,P-GPS,
8050,2019-07-04 06:25:38,61.50473,23.763988,34.5,,,136.7797699,5.001,0.388331,19,0,23.052,136.7797699,34.5,5.118,0.785641,0,0.1,-5,47.1, 4.7, -2.7,0,0,1024,1024,1684,1024,47.3,0,81,3.912,3.93,3.886,3.938,3.937,3.911,31.21,33,136.7797699,34.5,6,P-GPS,
8150,2019-07-04 06:25:38,61.50473,23.763988,35.1,,,137.3797699,5.001,0.388331,19,0,23.052,137.3797699,35.1,5.118,0.785641,-0.1,0,-5,46.9, 3.6, -3.2,0,0,1024,1024,1684,1024,47.3,0,81,3.912,3.93,3.886,3.938,3.937,3.911,31.21,33,137.3797699,35.1,6,P-GPS,
8350,2019-07-04 06:25:38,61.50473,23.763988,35.6,,,137.8797699,5.002,0.388331,19,0,23.052,137.8797699,35.6,5.118,0.785641,-0.1,0.1,-5,46.9, 2.5, -3.7,0,0,1024,1024,1684,1024,47.3,0,81,3.912,3.93,3.886,3.938,3.937,3.911,31.21,33,137.8797699,35.6,6,P-GPS,
8450,2019-07-04 06:25:38,61.50473,23.763988,36.1,,,138.3797699,5.005,0.388331,19,0,23.052,138.3797699,36.1,5.118,0.785641,-0.2,0.1,-5,46.9, 2.1, -4.6,0,0,1024,1024,1684,1024,47.3,0,81,3.912,3.93,3.886,3.938,3.937,3.911,31.21,33,138.3797699,36.1,6,P-GPS,
8550,2019-07-04 06:25:38,61.50473,23.763988,36.5,,,138.7797699,5.005,0.388331,19,0,23.052,138.7797699,36.5,5.118,0.785641,-0.2,0.1,-5,47, 2.1, -5.8,0,0,1024,1024,1684,1024,47.3,0,81,3.912,3.93,3.886,3.938,3.937,3.911,31.21,33,138.7797699,36.5,6,P-GPS,
8560,2019-07-04 06:25:38,61.504729,23.763988,37,,,139.2797699,4.904,0.461123,19,0,23.052,139.2797699,37,5.118,0.785641,-0.2,0,-4.9,47, 2.3, -6.2,0,0,1024,1024,1684,1024,47.3,0,81,3.912,3.93,3.886,3.938,3.937,3.911,31.21,33,139.2797699,37,6,P-GPS,
8760,2019-07-04 06:25:39,61.504729,23.763988,37.5,,,139.7797699,4.904,0.461123,19,0,23.052,139.7797699,37.5,5.118,0.785641,-0.2,0,-4.9,47.1, 2, -6.5,0,0,1024,1024,1684,1024,47.3,0,81,3.912,3.93,3.886,3.938,3.937,3.911,31.21,33,139.7797699,37.5,6,P-GPS,
8860,2019-07-04 06:25:39,61.504729,23.763987,38.5,,,140.7797699,4.901,0.499227,19,0,23.052,140.7797699,38.5,5.118,0.785641,-0.1,0,-4.9,47.2, 1.6, -5.7,0,0,1024,1024,1684,1024,47.3,0,81,3.912,3.93,3.886,3.938,3.937,3.911,31.21,33,140.7797699,38.5,6,P-GPS,
8960,2019-07-04 06:25:39,61.504728,23.763987,39,,,141.2797699,4.902,0.579478,19,0,23.13,141.2797699,39,5.118,0.785641,-0.1,-0.1,-4.9,47.2, 0.7, -4.8,0,0,1024,1024,1684,1024,47.3,0,80,3.912,3.93,3.886,3.938,3.937,3.911,30.414,33,141.2797699,39,6,P-GPS,
9060,2019-07-04 06:25:39,61.504728,23.763986,39.5,,,141.7797699,5.002,0.614831,19,0,23.13,141.7797699,39.5,5.118,0.785641,-0.1,-0.1,-5,47.3, -0.4, -4.2,0,0,1024,1024,1684,1024,47.3,0,80,3.912,3.93,3.886,3.938,3.937,3.911,30.414,33,141.7797699,39.5,6,P-GPS,
9160,2019-07-04 06:25:39,61.504728,23.763985,40.1,,,142.3797699,5.001,0.652587,19,0,23.13,142.3797699,40.1,5.118,0.785641,0,-0.1,-5,47.3, -1.1, -4.1,0,0,1024,1024,1674,1024,47.3,0,80,3.912,3.93,3.886,3.938,3.937,3.911,30.414,33,142.3797699,40.1,6,P-GPS,
9260,2019-07-04 06:25:39,61.504728,23.763984,40.6,,,142.8797699,5.001,0.692352,19,0,23.13,142.8797699,40.6,5.118,0.785641,0,-0.1,-5,47.2, -1.3, -4,0,0,1024,1024,1684,1024,47.3,0,80,3.912,3.93,3.886,3.938,3.937,3.911,30.414,33,142.8797699,40.6,6,P-GPS,
9470,2019-07-04 06:25:39,61.504728,23.763984,41.1,,,143.3797699,4.901,0.692352,19,0,23.13,143.3797699,41.1,5.118,0.785641,0,-0.1,-4.9,47.2, -1.4, -3.5,0,0,1024,1024,1684,1024,47.3,0,80,3.912,3.93,3.886,3.938,3.937,3.911,30.414,33,143.3797699,41.1,6,P-GPS,
9480,2019-07-04 06:25:39,61.504728,23.763983,41.6,,,143.8797699,5,0.7338,19,0,23.13,143.8797699,41.6,5.118,0.785641,0,0,-5,47.2, -0.9, -3,0,0,1024,1024,1684,1024,47.3,0,80,3.912,3.93,3.886,3.938,3.937,3.911,30.414,33,143.8797699,41.6,6,P-GPS,
9580,2019-07-04 06:25:39,61.504728,23.763983,42.2,,,144.4797699,5,0.7338,19,0,23.13,144.4797699,42.2,5.118,0.785641,0,0,-5,47.2, 0, -2.2,0,0,1024,1024,1684,1024,47.3,0,80,3.912,3.93,3.886,3.938,3.937,3.911,30.414,33,144.4797699,42.2,6,P-GPS,
9680,2019-07-04 06:25:39,61.504728,23.763983,42.7,,,144.9797699,5,0.7338,19,0,23.13,144.9797699,42.7,5.118,0.785641,0,0,-5,47.1, 0.5, -1.3,0,0,1024,1024,1684,1024,47.3,0,80,3.912,3.93,3.886,3.938,3.937,3.911,30.414,33,144.9797699,42.7,6,P-GPS,
9780,2019-07-04 06:25:40,61.504728,23.763982,43.2,,,145.4797699,5,0.776662,19,0,23.13,145.4797699,43.2,5.118,0.785641,0,0,-5,47.2, 1.1, -1.2,0,0,1024,1024,1684,1024,47.3,0,80,3.912,3.93,3.886,3.938,3.937,3.911,30.414,33,145.4797699,43.2,6,P-GPS,
9880,2019-07-04 06:25:40,61.504728,23.763982,43.7,,,145.9797699,5,0.776662,19,0,23.13,145.9797699,43.7,5.118,0.785641,0,0,-5,47.3, 1.2, -2,0,0,1024,1024,1684,1024,47.3,0,80,3.912,3.93,3.886,3.938,3.937,3.911,30.414,33,145.9797699,43.7,6,P-GPS,
9980,2019-07-04 06:25:40,61.504728,23.763982,44.1,,,146.3797699,4.901,0.776662,19,0,22.98,146.3797699,44.1,5.118,0.785641,-0.1,0,-4.9,47.3, 1.2, -3.5,0,0,1024,1024,1684,1024,47.3,0,80,3.912,3.93,3.886,3.938,3.937,3.911,32.424,33,146.3797699,44.1,6,P-GPS,
10080,2019-07-04 06:25:40,61.504728,23.763982,44.6,,,146.8797699,4.901,0.776662,19,0,22.98,146.8797699,44.6,5.118,0.785641,-0.1,0,-4.9,47.3, 0.6, -5,0,0,1024,1024,1684,1024,47.3,0,80,3.912,3.93,3.886,3.938,3.937,3.911,32.424,33,146.8797699,44.6,6,P-GPS,
10180,2019-07-04 06:25:40,61.504728,23.763982,45,,,147.2797699,4.901,0.776662,19,0,22.98,147.2797699,45,5.118,0.785641,-0.1,0,-4.9,47.3, 0.1, -6.5,0,0,1024,1024,1684,1024,47.3,0,80,3.912,3.93,3.886,3.938,3.937,3.911,32.424,33,147.2797699,45,6,P-GPS,
10280,2019-07-04 06:25:40,61.504728,23.763982,45.5,,,147.7797699,4.8,0.776662,19,0,22.98,147.7797699,45.5,5.118,0.785641,0,0,-4.8,47.3, -0.3, -7.2,0,0,1024,1024,1684,1024,47.3,0,80,3.912,3.93,3.886,3.938,3.937,3.911,32.424,33,147.7797699,45.5,6,P-GPS,
10390,2019-07-04 06:25:40,61.504728,23.763981,45.9,,,148.1797699,4.8,0.820715,19,0,22.98,148.1797699,45.9,5.118,0.820715,0,0,-4.8,47.3, -0.3, -6.3,0,0,1024,1024,1684,1024,47.3,0,80,3.912,3.93,3.886,3.938,3.937,3.911,32.424,33,148.1797699,45.9,6,P-GPS,
10490,2019-07-04 06:25:40,61.504728,23.763981,46.4,,,148.6797699,4.8,0.820715,19,0,22.98,148.6797699,46.4,5.118,0.820715,0,0,-4.8,47.2, -0.3, -4.2,0,0,1024,1024,1684,1024,47.3,0,80,3.912,3.93,3.886,3.938,3.937,3.911,32.424,33,148.6797699,46.4,6,P-GPS,
10600,2019-07-04 06:25:40,61.504728,23.763981,46.8,,,149.0797699,4.8,0.820715,19,0,22.98,149.0797699,46.8,5.118,0.820715,0,0,-4.8,47.3, -0.4, -2.7,0,0,1024,1024,1564,1024,47.3,0,80,3.912,3.93,3.886,3.938,3.937,3.911,32.424,33,149.0797699,46.8,6,P-GPS,
10700,2019-07-04 06:25:40,61.504727,23.763981,47.4,,,149.6797699,4.8,0.885932,19,0,22.98,149.6797699,47.4,5.118,0.885932,0,0,-4.8,47.3, -0.3, -3,0,0,1024,1024,1325,1024,47.3,0,80,3.912,3.93,3.886,3.938,3.937,3.911,32.424,33,149.6797699,47.4,6,P-GPS,
10800,2019-07-04 06:25:41,61.504727,23.76398,47.9,,,150.1797699,4.5,0.927833,19,0,22.98,150.1797699,47.9,5.118,0.927833,0,0,-4.5,47.2, 0, -4.3,0,0,1024,1024,1216,1024,47.3,0,80,3.912,3.93,3.886,3.938,3.937,3.911,32.424,33,150.1797699,47.9,6,P-GPS,
10900,2019-07-04 06:25:41,61.504727,23.76398,48.3,,,150.5797699,4,0.927833,19,0,22.98,150.5797699,48.3,5.118,0.927833,0,0,-4,47.3, -0.1, -5.4,0,0,1024,1024,1178,1024,47.3,0,80,3.912,3.93,3.886,3.938,3.937,3.911,32.424,33,150.5797699,48.3,6,P-GPS,
11000,2019-07-04 06:25:41,61.504728,23.76398,48.7,,,150.9797699,3.5,0.865779,19,0,22.98,150.9797699,48.7,5.118,0.927833,0,0,-3.5,47.3, -0.3, -5.5,0,0,1024,1024,1103,1024,47.3,0,80,3.912,3.93,3.886,3.938,3.937,3.911,32.424,33,150.9797699,48.7,6,P-GPS,
11100,2019-07-04 06:25:41,61.504727,23.76398,49,,,151.2797699,3,0.927833,19,0,22.98,151.2797699,49,5.118,0.927833,0,0,-3,47.2, -0.4, -5.5,0,0,1024,1024,1046,1024,47.3,0,80,3.912,3.93,3.886,3.938,3.937,3.911,32.424,33,151.2797699,49,6,P-GPS,
11200,2019-07-04 06:25:41,61.504727,23.763981,49.3,,,151.5797699,2.504,0.885932,19,0,22.98,151.5797699,49.3,5.118,0.927833,-0.1,0.1,-2.5,47.2, -0.6, -5.7,0,0,1024,1024,1024,1024,47.3,0,80,3.912,3.93,3.886,3.938,3.937,3.911,32.424,33,151.5797699,49.3,6,P-GPS,
11310,2019-07-04 06:25:41,61.504727,23.763981,49.5,,,151.7797699,1.913,0.885932,19,0,22.98,151.7797699,49.5,5.118,0.927833,-0.1,0.2,-1.9,47.2, -0.7, -6.5,0,0,1024,1024,1024,1024,47.3,0,80,3.912,3.93,3.886,3.938,3.937,3.911,32.424,33,151.7797699,49.5,6,P-GPS,
11420,2019-07-04 06:25:41,61.504727,23.763981,49.8,,,152.0797699,1.428,0.885932,19,0,22.98,152.0797699,49.8,5.118,0.927833,-0.2,0.2,-1.4,47.2, -0.6, -7.7,0,0,1024,1024,1024,1024,47.3,0,80,3.912,3.93,3.886,3.938,3.937,3.911,32.424,33,152.0797699,49.8,6,P-GPS,
11520,2019-07-04 06:25:41,61.504726,23.763982,49.9,,,152.1797699,0.911,0.922247,19,0,22.98,152.1797699,49.9,5.118,0.927833,-0.1,0.1,-0.9,47.3, -0.7, -7.9,0,0,1024,1024,1024,1024,47.3,0,80,3.912,3.93,3.886,3.938,3.937,3.911,32.424,33,152.1797699,49.9,6,P-GPS,
11620,2019-07-04 06:25:41,61.504726,23.763982,50,,,152.2797699,0.64,0.922247,19,0,22.98,152.2797699,50,5.118,0.927833,-0.1,0.2,-0.6,47.2, -0.6, -7.1,0,0,1024,1024,1024,1024,47.3,0,80,3.912,3.93,3.886,3.938,3.937,3.911,32.424,33,152.2797699,50,6,P-GPS,
11720,2019-07-04 06:25:41,61.504726,23.763982,50.1,,,152.3797699,0.361,0.922247,19,0,22.98,152.3797699,50.1,5.118,0.927833,0,0.2,-0.3,47.2, -0.4, -6.7,0,0,1024,1024,1024,1024,47.3,0,80,3.912,3.93,3.886,3.938,3.937,3.911,32.424,33,152.3797699,50.1,6,P-GPS,
11830,2019-07-04 06:25:42,61.504725,23.763983,50.2,,,152.4797699,0.283,0.972916,19,0,22.98,152.4797699,50.2,5.118,0.972916,0,0.2,-0.2,47.3, -0.1, -6.3,0,0,1024,1024,1024,1024,47.3,0,80,3.912,3.93,3.886,3.938,3.937,3.911,32.424,33,152.4797699,50.2,6,P-GPS,
11930,2019-07-04 06:25:42,61.504725,23.763984,50.2,,,152.4797699,0.2,0.942048,19,0,22.98,152.4797699,50.2,5.118,0.972916,0,0.2,0,47.3, 0.1, -5.8,0,0,1024,1024,1024,1024,47.3,0,80,3.912,3.93,3.886,3.938,3.937,3.911,32.424,33,152.4797699,50.2,6,P-GPS,
12030,2019-07-04 06:25:42,61.504725,23.763984,50.2,,,152.4797699,0.2,0.942048,19,0,23.028,152.4797699,50.2,5.118,0.972916,0,0.2,0,47.3, 0.3, -5.6,0,0,1024,1024,1024,1024,47.3,0,80,3.912,3.93,3.886,3.938,3.937,3.911,31.606,33,152.4797699,50.2,6,P-GPS,
12130,2019-07-04 06:25:42,61.504725,23.763984,50.2,,,152.4797699,0.2,0.942048,19,0,23.028,152.4797699,50.2,5.118,0.972916,0,0.2,0,47.4, 0.5, -5.7,0,0,1024,1024,1024,1024,47.3,0,80,3.912,3.93,3.886,3.938,3.937,3.911,31.606,33,152.4797699,50.2,6,P-GPS,
12230,2019-07-04 06:25:42,61.504725,23.763985,50.2,,,152.4797699,0.2,0.913222,19,0,23.028,152.4797699,50.2,5.118,0.972916,0,0.2,0,47.4, 0.7, -6.1,0,0,1024,1024,1024,1024,47.3,0,80,3.912,3.93,3.886,3.938,3.937,3.911,31.606,33,152.4797699,50.2,6,P-GPS,
12330,2019-07-04 06:25:42,61.504725,23.763984,50.1,,,152.3797699,0.2,0.942048,19,0,23.028,152.4797699,50.2,5.118,0.972916,0,0.2,0,47.4, 0.6, -6.8,0,0,1024,1024,984,1024,47.3,0,80,3.912,3.93,3.886,3.938,3.937,3.911,31.606,33,152.3797699,50.1,6,P-GPS,
12440,2019-07-04 06:25:42,61.504724,23.763984,50.2,,,152.4797699,0.2,1.03584,19,0,23.028,152.4797699,50.2,5.118,1.03584,0,0.2,0,47.3, 0.4, -7.2,0,0,1024,1024,975,1024,47.3,0,80,3.912,3.93,3.886,3.938,3.937,3.911,31.606,33,152.4797699,50.2,6,P-GPS,
12540,2019-07-04 06:25:42,61.504724,23.763985,50.1,,,152.3797699,0.2,1.00969,19,0,23.028,152.4797699,50.2,5.118,1.03584,0,0.2,0,47.3, 0.2, -7.3,0,0,1024,1024,1024,1024,47.3,0,80,3.912,3.93,3.886,3.938,3.937,3.911,31.606,33,152.3797699,50.1,6,P-GPS,
12640,2019-07-04 06:25:42,61.504724,23.763985,50.2,,,152.4797699,0.2,1.00969,19,0,23.028,152.4797699,50.2,5.118,1.03584,0,0.2,0,47.2, 0.4, -7.7,0,0,1024,1024,1024,1024,47.3,0,80,3.912,3.93,3.886,3.938,3.937,3.911,31.606,33,152.4797699,50.2,6,P-GPS,
12740,2019-07-04 06:25:43,61.504723,23.763985,50.2,,,152.4797699,0.2,1.10892,19,0,23.028,152.4797699,50.2,5.118,1.10892,0,0.2,0,47.1, 0.5, -8.3,0,0,1024,1024,1024,1024,47.3,0,80,3.912,3.93,3.886,3.938,3.937,3.911,31.606,33,152.4797699,50.2,6,P-GPS,
12850,2019-07-04 06:25:43,61.504723,23.763985,50.2,,,152.4797699,0.2,1.10892,19,0,23.028,152.4797699,50.2,5.118,1.10892,0,0.2,0,47.2, 0.5, -8.8,0,0,1024,1024,1024,1024,47.3,0,80,3.912,3.93,3.886,3.938,3.937,3.911,31.606,33,152.4797699,50.2,6,P-GPS,
12950,2019-07-04 06:25:43,61.504722,23.763986,50.2,,,152.4797699,0.1,1.19031,19,0,23.028,152.4797699,50.2,5.118,1.19031,0,0.1,0,47.2, 0.4, -8.9,0,0,1024,1024,1024,1024,47.3,0,80,3.912,3.93,3.886,3.938,3.937,3.911,31.606,33,152.4797699,50.2,6,P-GPS,
13050,2019-07-04 06:25:43,61.504722,23.763986,50.3,,,152.5797699,0.1,1.19031,19,0,23.028,152.5797699,50.3,5.118,1.19031,0,0.1,0,47.2, 0, -8.6,0,0,1024,1024,1024,1024,47.3,0,80,3.912,3.93,3.886,3.938,3.937,3.911,31.606,33,152.5797699,50.3,6,P-GPS,
13150,2019-07-04 06:25:43,61.504722,23.763987,50.2,,,152.4797699,0.1,1.17244,19,0,23.028,152.5797699,50.3,5.118,1.19031,0,0.1,0,47.2, -0.4, -8.4,0,0,1024,1024,1024,1024,47.3,0,80,3.912,3.93,3.886,3.938,3.937,3.911,31.606,33,152.4797699,50.2,6,P-GPS,
13260,2019-07-04 06:25:43,61.504722,23.763987,50.2,,,152.4797699,0.1,1.17244,19,0,23.028,152.5797699,50.3,5.118,1.19031,0,0.1,0,47.2, -0.7, -8.5,0,0,1024,1024,1024,1024,47.3,0,80,3.912,3.93,3.886,3.938,3.937,3.911,31.606,33,152.4797699,50.2,6,P-GPS,
13460,2019-07-04 06:25:43,61.504722,23.763987,50.2,,,152.4797699,0,1.17244,19,0,23.028,152.5797699,50.3,5.118,1.19031,0,0,0,47.2, -0.7, -8.3,0,0,1024,1024,1024,1024,47.3,0,80,3.912,3.93,3.886,3.938,3.937,3.911,31.606,33,152.4797699,50.2,6,P-GPS,
13560,2019-07-04 06:25:43,61.504721,23.763987,50.1,,,152.3797699,0.1,1.2784,19,0,23.028,152.5797699,50.3,5.118,1.2784,0,0.1,0,47.2, -0.5, -8.2,0,0,1024,1024,1024,1024,47.3,0,80,3.912,3.93,3.886,3.938,3.937,3.911,31.606,33,152.3797699,50.1,6,P-GPS,
13660,2019-07-04 06:25:43,61.504721,23.763987,50.1,,,152.3797699,0.1,1.2784,19,0,23.028,152.5797699,50.3,5.118,1.2784,0,0.1,0,47.2, -0.3, -8.6,0,0,1024,1024,1024,1024,47.3,0,80,3.912,3.93,3.886,3.938,3.937,3.911,31.606,33,152.3797699,50.1,6,P-GPS,
13770,2019-07-04 06:25:44,61.504721,23.763988,50.1,,,152.3797699,0.141,1.26401,19,0,23.028,152.5797699,50.3,5.118,1.2784,0.1,0.1,0,47.1, -0.1, -8.4,0,0,1024,1024,1024,1024,47.3,0,80,3.912,3.93,3.886,3.938,3.937,3.911,31.606,33,152.3797699,50.1,6,P-GPS,
13880,2019-07-04 06:25:44,61.504721,23.763988,50.1,,,152.3797699,0.141,1.26401,19,0,23.028,152.5797699,50.3,5.118,1.2784,0.1,0.1,0,47.1, 0, -8.2,0,0,1024,1024,1024,1024,47.3,0,80,3.912,3.93,3.886,3.938,3.937,3.911,31.606,33,152.3797699,50.1,6,P-GPS,
13980,2019-07-04 06:25:44,61.504722,23.763987,50.1,,,152.3797699,0.141,1.17244,18,0,23.796,152.5797699,50.3,5.118,1.2784,0.1,0.1,0,47.1, 0.1, -7.8,0,0,1024,1024,1024,1024,47.3,0,80,3.872,3.885,3.836,3.896,3.893,3.868,20.088,33,152.3797699,50.1,6,P-GPS,
14080,2019-07-04 06:25:44,61.504722,23.763987,50.1,,,152.3797699,0.141,1.17244,18,0,23.796,152.5797699,50.3,5.118,1.2784,0.1,0.1,0,47.1, 0.1, -7.5,0,0,1024,1024,1024,1024,47.3,0,80,3.872,3.885,3.836,3.896,3.893,3.868,20.088,33,152.3797699,50.1,6,P-GPS,
14180,2019-07-04 06:25:44,61.504722,23.763988,50.1,,,152.3797699,0.1,1.15673,19,0,23.796,152.5797699,50.3,5.118,1.2784,0.1,0,0,47.1, 0.3, -7.7,0,0,1024,1024,1024,1024,47.3,0,80,3.872,3.885,3.836,3.896,3.893,3.868,20.088,33,152.3797699,50.1,6,P-GPS,
14280,2019-07-04 06:25:44,61.504722,23.763988,50.1,,,152.3797699,0.2,1.15673,19,0,23.796,152.5797699,50.3,5.118,1.2784,0.2,0,0,47.1, 0.5, -7.7,0,0,1024,1024,1024,1024,47.3,0,80,3.872,3.885,3.836,3.896,3.893,3.868,20.088,33,152.3797699,50.1,6,P-GPS,
14390,2019-07-04 06:25:44,61.504722,23.763988,50,,,152.2797699,0.2,1.15673,19,0,23.796,152.5797699,50.3,5.118,1.2784,0.2,0,0,47.1, 0.5, -7.5,0,0,1024,1024,1024,1024,47.3,0,80,3.872,3.885,3.836,3.896,3.893,3.868,20.088,33,152.2797699,50,6,P-GPS,
14490,2019-07-04 06:25:44,61.504722,23.763988,50,,,152.2797699,0.2,1.15673,19,0,23.796,152.5797699,50.3,5.118,1.2784,0.2,0,0,47.1, 0.5, -6.8,0,0,1024,1024,1024,1024,47.3,0,80,3.872,3.885,3.836,3.896,3.893,3.868,20.088,33,152.2797699,50,6,P-GPS,
14590,2019-07-04 06:25:44,61.504723,23.763988,50,,,152.2797699,0.2,1.05026,19,0,23.796,152.5797699,50.3,5.118,1.2784,0.2,0,0,47.1, 0.6, -6.4,0,0,1024,1024,1024,1024,47.3,0,80,3.872,3.885,3.836,3.896,3.893,3.868,20.088,33,152.2797699,50,6,P-GPS,
14690,2019-07-04 06:25:44,61.504723,23.763988,50.1,,,152.3797699,0.224,1.05026,19,0,23.796,152.5797699,50.3,5.118,1.2784,0.2,0.1,0,47, 0.8, -6.7,0,0,1024,1024,1024,1024,47.3,0,80,3.872,3.885,3.836,3.896,3.893,3.868,20.088,33,152.3797699,50.1,6,P-GPS,
14800,2019-07-04 06:25:45,61.504723,23.763988,49.9,,,152.1797699,0.224,1.05026,19,0,23.796,152.5797699,50.3,5.118,1.2784,0.2,0.1,0,47, 1.1, -7.1,0,0,1024,1024,1024,1024,47.3,0,80,3.872,3.885,3.836,3.896,3.893,3.868,20.088,33,152.1797699,49.9,6,P-GPS,
14900,2019-07-04 06:25:45,61.504723,23.763988,50,,,152.2797699,0.316,1.05026,19,0,23.796,152.5797699,50.3,5.118,1.2784,0.3,0.1,0,47, 1.3, -7.1,0,0,1024,1024,1024,1024,47.3,0,80,3.872,3.885,3.836,3.896,3.893,3.868,20.088,33,152.2797699,50,6,P-GPS,
15000,2019-07-04 06:25:45,61.504723,23.763989,50,,,152.2797699,0.316,1.03541,19,0,23.796,152.5797699,50.3,5.118,1.2784,0.3,0.1,0,46.9, 1.5, -6.7,0,0,1024,1024,1024,1024,47.3,0,80,3.872,3.885,3.836,3.896,3.893,3.868,20.088,33,152.2797699,50,6,P-GPS,
15100,2019-07-04 06:25:45,61.504723,23.763989,50.1,,,152.3797699,0.332,1.03541,19,0,23.796,152.5797699,50.3,5.118,1.2784,0.3,0.1,-0.1,46.9, 1.9, -6.7,0,0,1024,1024,1024,1024,47.3,0,80,3.872,3.885,3.836,3.896,3.893,3.868,20.088,33,152.3797699,50.1,6,P-GPS,
15200,2019-07-04 06:25:45,61.504724,23.763989,50.1,,,152.3797699,0.316,0.928356,19,0,23.796,152.5797699,50.3,5.118,1.2784,0.3,0.1,0,46.9, 2.2, -7.1,0,0,1024,1024,1024,1024,47.3,0,80,3.872,3.885,3.836,3.896,3.893,3.868,20.088,33,152.3797699,50.1,6,P-GPS,
15300,2019-07-04 06:25:45,61.504724,23.763989,50.2,,,152.4797699,0.332,0.928356,19,0,23.796,152.5797699,50.3,5.118,1.2784,0.3,0.1,-0.1,46.8, 2.6, -7.2,0,0,1024,1024,1024,1024,47.3,0,80,3.872,3.885,3.836,3.896,3.893,3.868,20.088,33,152.4797699,50.2,6,P-GPS,
15410,2019-07-04 06:25:45,61.504724,23.763989,50.2,,,152.4797699,0.3,0.928356,19,0,23.796,152.5797699,50.3,5.118,1.2784,0.3,0,0,46.9, 3.1, -7.2,0,0,1024,1024,1024,1024,47.3,0,80,3.872,3.885,3.836,3.896,3.893,3.868,20.088,33,152.4797699,50.2,6,P-GPS,
15510,2019-07-04 06:25:45,61.504725,23.763989,50.2,,,152.4797699,0.3,0.822401,19,0,23.796,152.5797699,50.3,5.118,1.2784,0.3,0,0,46.9, 2.9, -6.7,0,0,1024,1024,1024,1024,47.3,0,80,3.872,3.885,3.836,3.896,3.893,3.868,20.088,33,152.4797699,50.2,6,P-GPS,
15610,2019-07-04 06:25:45,61.504725,23.763989,50.2,,,152.4797699,0.2,0.822401,19,0,23.796,152.5797699,50.3,5.118,1.2784,0.2,0,0,46.9, 2.5, -6.1,0,0,1024,1024,1024,1024,47.3,0,80,3.872,3.885,3.836,3.896,3.893,3.868,20.088,33,152.4797699,50.2,6,P-GPS,
15710,2019-07-04 06:25:45,61.504725,23.763989,50.2,,,152.4797699,0.2,0.822401,19,0,23.796,152.5797699,50.3,5.118,1.2784,0.2,0,0,46.9, 2.3, -6,0,0,1024,1024,1024,1024,47.3,0,80,3.872,3.885,3.836,3.896,3.893,3.868,20.088,33,152.4797699,50.2,6,P-GPS,
15820,2019-07-04 06:25:46,61.504726,23.763989,50.2,,,152.4797699,0.2,0.718036,19,0,23.796,152.5797699,50.3,5.118,1.2784,0.2,0,0,47, 2.1, -6,0,0,1024,1024,1024,1024,47.3,0,80,3.872,3.885,3.836,3.896,3.893,3.868,20.088,33,152.4797699,50.2,6,P-GPS,
15920,2019-07-04 06:25:46,61.504726,23.763989,50.2,,,152.4797699,0.224,0.718036,19,0,23.796,152.5797699,50.3,5.118,1.2784,0.2,0.1,0,47.1, 2, -6.4,0,0,1024,1024,1024,1024,47.3,0,80,3.872,3.885,3.836,3.896,3.893,3.868,20.088,33,152.4797699,50.2,6,P-GPS,
16020,2019-07-04 06:25:46,61.504726,23.763989,50.2,,,152.4797699,0.141,0.718036,19,0,23.166,152.5797699,50.3,5.118,1.2784,0.1,0.1,0,47.1, 2, -6.9,0,0,1024,1024,1024,1024,47.3,0,80,3.872,3.885,3.836,3.896,3.893,3.868,24.296,33,152.4797699,50.2,6,P-GPS,
16130,2019-07-04 06:25:46,61.504726,23.763989,50.2,,,152.4797699,0.224,0.718036,19,0,23.166,152.5797699,50.3,5.118,1.2784,0.2,0.1,0,47.1, 2.2, -7.5,0,0,1024,1024,1024,1024,47.3,0,80,3.872,3.885,3.836,3.896,3.893,3.868,24.296,33,152.4797699,50.2,6,P-GPS,
16230,2019-07-04 06:25:46,61.504726,23.76399,50.2,,,152.4797699,0.2,0.700173,19,0,23.166,152.5797699,50.3,5.118,1.2784,0.2,0,0,47, 2.5, -7.7,0,0,1024,1024,1024,1024,47.3,0,80,3.872,3.885,3.836,3.896,3.893,3.868,24.296,33,152.4797699,50.2,6,P-GPS,
16330,2019-07-04 06:25:46,61.504727,23.76399,50.2,,,152.4797699,0.3,0.595153,19,0,23.166,152.5797699,50.3,5.118,1.2784,0.3,0,0,47, 2.8, -7,0,0,1024,1024,1024,1024,47.3,0,80,3.872,3.885,3.836,3.896,3.893,3.868,24.296,33,152.4797699,50.2,6,P-GPS,
16440,2019-07-04 06:25:46,61.504727,23.76399,50.3,,,152.5797699,0.3,0.595153,19,0,23.166,152.5797699,50.3,5.118,1.2784,0.3,0,0,47.1, 2.9, -5.8,0,0,1024,1024,1024,1024,47.3,0,80,3.872,3.885,3.836,3.896,3.893,3.868,24.296,33,152.5797699,50.3,6,P-GPS,
16540,2019-07-04 06:25:46,61.504727,23.76399,50.3,,,152.5797699,0.3,0.595153,19,0,23.166,152.5797699,50.3,5.118,1.2784,0.3,0,0,47.1, 3.1, -4.6,0,0,1024,1024,1024,1024,47.3,0,80,3.872,3.885,3.836,3.896,3.893,3.868,24.296,33,152.5797699,50.3,6,P-GPS,
16640,2019-07-04 06:25:46,61.504727,23.76399,50.4,,,152.6797699,0.2,0.595153,19,0,23.166,152.6797699,50.4,5.118,1.2784,0.2,0,0,47, 3.3, -3.7,0,0,1024,1024,1024,1024,47.3,0,80,3.872,3.885,3.836,3.896,3.893,3.868,24.296,33,152.6797699,50.4,6,P-GPS,
16740,2019-07-04 06:25:47,61.504728,23.763989,50.3,,,152.5797699,0.224,0.517918,19,0,23.166,152.6797699,50.4,5.118,1.2784,0.2,-0.1,0,47, 2.8, -3.6,0,0,1024,1024,1024,1024,47.3,0,80,3.872,3.885,3.836,3.896,3.893,3.868,24.296,33,152.5797699,50.3,6,P-GPS,
16850,2019-07-04 06:25:47,61.504728,23.763989,50.3,,,152.5797699,0.2,0.517918,19,0,23.166,152.6797699,50.4,5.118,1.2784,0.2,0,0,47, 2.1, -3.9,0,0,1024,1024,1024,1024,47.3,0,80,3.872,3.885,3.836,3.896,3.893,3.868,24.296,33,152.5797699,50.3,6,P-GPS,
16950,2019-07-04 06:25:47,61.504728,23.763989,50.4,,,152.6797699,0.1,0.517918,19,0,23.166,152.6797699,50.4,5.118,1.2784,0.1,0,0,47, 2.2, -4.7,0,0,1024,1024,1024,1024,47.3,0,80,3.872,3.885,3.836,3.896,3.893,3.868,24.296,33,152.6797699,50.4,6,P-GPS,
16960,2019-07-04 06:25:47,61.504728,23.763989,50.4,,,152.6797699,0.1,0.517918,19,0,23.166,152.6797699,50.4,5.118,1.2784,0.1,0,0,47.1, 2.4, -5.7,0,0,1024,1024,1024,1024,47.3,0,80,3.872,3.885,3.836,3.896,3.893,3.868,24.296,33,152.6797699,50.4,6,P-GPS,
17060,2019-07-04 06:25:47,61.504728,23.763989,50.4,,,152.6797699,0,0.517918,19,0,23.166,152.6797699,50.4,5.118,1.2784,0,0,0,47.1, 1.8, -6.1,0,0,1024,1024,1024,1024,47.3,0,80,3.872,3.885,3.836,3.896,3.893,3.868,24.296,33,152.6797699,50.4,6,P-GPS,
17160,2019-07-04 06:25:47,61.504728,23.763989,50.4,,,152.6797699,0.1,0.517918,19,0,23.166,152.6797699,50.4,5.118,1.2784,0,0,0.1,47.2, 1.5, -6.2,0,0,1024,1024,1024,1024,47.3,0,80,3.872,3.885,3.836,3.896,3.893,3.868,24.296,33,152.6797699,50.4,6,P-GPS,
17260,2019-07-04 06:25:47,61.504728,23.763989,50.3,,,152.5797699,0.1,0.517918,19,0,23.166,152.6797699,50.4,5.118,1.2784,0,0,0.1,47.2, 1.5, -6.2,0,0,1024,1024,1024,1024,47.3,0,80,3.872,3.885,3.836,3.896,3.893,3.868,24.296,33,152.5797699,50.3,6,P-GPS,
17360,2019-07-04 06:25:47,61.504728,23.76399,50.3,,,152.5797699,0.1,0.492855,19,0,23.166,152.6797699,50.4,5.118,1.2784,0,0,0.1,47.3, 1.3, -6.4,0,0,1024,1024,1024,1024,47.3,0,80,3.872,3.885,3.836,3.896,3.893,3.868,24.296,33,152.5797699,50.3,6,P-GPS,
17470,2019-07-04 06:25:47,61.504729,23.76399,50.3,,,152.5797699,0.141,0.395396,19,0,23.166,152.6797699,50.4,5.118,1.2784,0,-0.1,0.1,47.4, 0.9, -6.5,0,0,1024,1024,1024,1024,47.3,0,80,3.872,3.885,3.836,3.896,3.893,3.868,24.296,33,152.5797699,50.3,6,P-GPS,
17570,2019-07-04 06:25:47,61.504729,23.76399,50.3,,,152.5797699,0.141,0.395396,19,0,23.166,152.6797699,50.4,5.118,1.2784,0.1,0,0.1,47.4, 0.7, -5.9,0,0,1024,1024,1024,1024,47.3,0,80,3.872,3.885,3.836,3.896,3.893,3.868,24.296,33,152.5797699,50.3,6,P-GPS,
17670,2019-07-04 06:25:47,61.504729,23.76399,50.3,,,152.5797699,0.141,0.395396,19,0,23.166,152.6797699,50.4,5.118,1.2784,0.1,-0.1,0,47.4, 0.5, -5.1,0,0,1024,1024,1024,1024,47.3,0,80,3.872,3.885,3.836,3.896,3.893,3.868,24.296,33,152.5797699,50.3,6,P-GPS,
17770,2019-07-04 06:25:48,61.504729,23.76399,50.3,,,152.5797699,0.1,0.395396,19,0,23.166,152.6797699,50.4,5.118,1.2784,0.1,0,0,47.3, 0.7, -4.7,0,0,1024,1024,1024,1024,47.3,0,80,3.872,3.885,3.836,3.896,3.893,3.868,24.296,33,152.5797699,50.3,6,P-GPS,
17880,2019-07-04 06:25:48,61.504729,23.76399,50.3,,,152.5797699,0.1,0.395396,19,0,23.166,152.6797699,50.4,5.118,1.2784,0.1,0,0,47.3, 1, -4.8,0,0,1024,1024,1024,1024,47.3,0,80,3.872,3.885,3.836,3.896,3.893,3.868,24.296,33,152.5797699,50.3,6,P-GPS,
17980,2019-07-04 06:25:48,61.504729,23.76399,50.4,,,152.6797699,0.1,0.395396,19,0,23.232,152.6797699,50.4,5.118,1.2784,0.1,0,0,47.3, 1.4, -5,0,0,1024,1024,1024,1024,47.3,0,80,3.872,3.885,3.836,3.896,3.893,3.868,24.166,33,152.6797699,50.4,6,P-GPS,
18080,2019-07-04 06:25:48,61.504729,23.76399,50.4,,,152.6797699,0.1,0.395396,19,0,23.232,152.6797699,50.4,5.118,1.2784,0.1,0,0,47.3, 1.8, -5.1,0,0,1024,1024,1024,1024,47.3,0,80,3.872,3.885,3.836,3.896,3.893,3.868,24.166,33,152.6797699,50.4,6,P-GPS,
18180,2019-07-04 06:25:48,61.50473,23.76399,50.4,,,152.6797699,0.1,0.307416,19,0,23.232,152.6797699,50.4,5.118,1.2784,0.1,0,0,47.3, 1.8, -5.4,0,0,1024,1024,1024,1024,47.3,0,80,3.872,3.885,3.836,3.896,3.893,3.868,24.166,33,152.6797699,50.4,6,P-GPS,
18280,2019-07-04 06:25:48,61.50473,23.76399,50.4,,,152.6797699,0.1,0.307416,19,0,23.232,152.6797699,50.4,5.118,1.2784,0.1,0,0,47.3, 1.4, -5.6,0,0,1024,1024,1024,1024,47.3,0,80,3.872,3.885,3.836,3.896,3.893,3.868,24.166,33,152.6797699,50.4,6,P-GPS,
18380,2019-07-04 06:25:48,61.50473,23.76399,50.4,,,152.6797699,0.1,0.307416,19,0,23.232,152.6797699,50.4,5.118,1.2784,0.1,0,0,47.3, 1.2, -5.5,0,0,1024,1024,1024,1024,47.3,0,80,3.872,3.885,3.836,3.896,3.893,3.868,24.166,33,152.6797699,50.4,6,P-GPS,
18500,2019-07-04 06:25:48,61.50473,23.76399,50.4,,,152.6797699,0.1,0.307416,19,0,23.232,152.6797699,50.4,5.118,1.2784,0.1,0,0,47.3, 1, -5.2,0,0,1024,1024,1024,1024,47.3,0,80,3.872,3.885,3.836,3.896,3.893,3.868,24.166,33,152.6797699,50.4,6,P-GPS,
18590,2019-07-04 06:25:48,61.50473,23.763989,50.4,,,152.6797699,0.173,0.346176,19,0,23.232,152.6797699,50.4,5.118,1.2784,0.1,-0.1,0.1,47.3, 0.8, -5.1,0,0,1024,1024,1024,1024,47.3,0,80,3.872,3.885,3.836,3.896,3.893,3.868,24.166,33,152.6797699,50.4,6,P-GPS,
18860,2019-07-04 06:25:49,61.50473,23.763989,50.4,,,152.6797699,0.141,0.346176,19,0,23.232,152.6797699,50.4,5.118,1.2784,0.1,-0.1,0,47.3, 0.5, -5.4,0,0,1024,1024,1024,1024,47.3,0,80,3.872,3.885,3.836,3.896,3.893,3.868,24.166,33,152.6797699,50.4,6,P-GPS,
18870,2019-07-04 06:25:49,61.50473,23.763989,50.4,,,152.6797699,0.173,0.346176,19,0,23.232,152.6797699,50.4,5.118,1.2784,0.1,-0.1,0.1,47.4, 0.5, -5.4,0,0,1024,1024,1024,1024,47.3,0,80,3.872,3.885,3.836,3.896,3.893,3.868,24.166,33,152.6797699,50.4,6,P-GPS,
18900,2019-07-04 06:25:49,61.504731,23.763988,50.4,,,152.6797699,0.245,0.337195,19,0,23.232,152.6797699,50.4,5.118,1.2784,0.2,-0.1,0.1,47.4, 0.5, -4.4,0,0,1024,1024,1024,1024,47.3,0,80,3.872,3.885,3.836,3.896,3.893,3.868,24.166,33,152.6797699,50.4,6,P-GPS,
19000,2019-07-04 06:25:49,61.504731,23.763988,50.4,,,152.6797699,0.224,0.337195,19,0,23.232,152.6797699,50.4,5.118,1.2784,0.2,-0.1,0,47.4, 1, -3.6,0,0,1024,1024,1024,1024,47.3,0,80,3.872,3.885,3.836,3.896,3.893,3.868,24.166,33,152.6797699,50.4,6,P-GPS,
19110,2019-07-04 06:25:49,61.504731,23.763987,50.4,,,152.6797699,0.224,0.387676,19,0,23.232,152.6797699,50.4,5.118,1.2784,0.2,-0.1,0,47.3, 1.4, -2.9,0,0,1024,1024,1024,1024,47.3,0,80,3.872,3.885,3.836,3.896,3.893,3.868,24.166,33,152.6797699,50.4,6,P-GPS,
19210,2019-07-04 06:25:49,61.504731,23.763987,50.4,,,152.6797699,0.224,0.387676,19,0,23.232,152.6797699,50.4,5.118,1.2784,0.2,-0.1,0,47.3, 1.5, -2.4,0,0,1024,1024,1024,1024,47.3,0,80,3.872,3.885,3.836,3.896,3.893,3.868,24.166,33,152.6797699,50.4,6,P-GPS,
19330,2019-07-04 06:25:49,61.504731,23.763987,50.4,,,152.6797699,0.283,0.387676,19,0,23.232,152.6797699,50.4,5.118,1.2784,0.2,-0.2,0,47.3, 1.4, -1.8,0,0,1024,1024,1024,1024,47.3,0,80,3.872,3.885,3.836,3.896,3.893,3.868,24.166,33,152.6797699,50.4,6,P-GPS,
19430,2019-07-04 06:25:49,61.504731,23.763986,50.4,,,152.6797699,0.245,0.438766,19,0,23.232,152.6797699,50.4,5.118,1.2784,0.1,-0.2,0.1,47.3, 0.9, -1.6,0,0,1024,1024,1024,1024,47.3,0,80,3.872,3.885,3.836,3.896,3.893,3.868,24.166,33,152.6797699,50.4,6,P-GPS,
19530,2019-07-04 06:25:49,61.504732,23.763985,50.4,,,152.6797699,0.173,0.477494,19,0,23.232,152.6797699,50.4,5.118,1.2784,0.1,-0.1,0.1,47.3, 0.2, -1.7,0,0,1024,1024,1024,1024,47.3,0,80,3.872,3.885,3.836,3.896,3.893,3.868,24.166,33,152.6797699,50.4,6,P-GPS,
19630,2019-07-04 06:25:49,61.504732,23.763985,50.4,,,152.6797699,0.173,0.477494,19,0,23.232,152.6797699,50.4,5.118,1.2784,0.1,-0.1,0.1,47.4, 0, -1.9,0,0,1024,1024,1024,1024,47.3,0,80,3.872,3.885,3.836,3.896,3.893,3.868,24.166,33,152.6797699,50.4,6,P-GPS,
19730,2019-07-04 06:25:49,61.504732,23.763985,50.4,,,152.6797699,0.141,0.477494,19,0,23.232,152.6797699,50.4,5.118,1.2784,0.1,0,0.1,47.3, 0, -2.5,0,0,1024,1024,1024,1024,47.3,0,80,3.872,3.885,3.836,3.896,3.893,3.868,24.166,33,152.6797699,50.4,6,P-GPS,
19820,2019-07-04 06:25:50,61.504732,23.763985,50.4,,,152.6797699,0.141,0.477494,19,0,23.232,152.6797699,50.4,5.118,1.2784,0.1,0,0.1,47.2, 0.1, -3,0,0,1024,1024,1024,1024,47.3,0,80,3.872,3.885,3.836,3.896,3.893,3.868,24.166,33,152.6797699,50.4,6,P-GPS,
19930,2019-07-04 06:25:50,61.504732,23.763985,50.4,,,152.6797699,0.141,0.477494,19,0,23.232,152.6797699,50.4,5.118,1.2784,0.1,0,0.1,47.2, 0.8, -3.1,0,0,1024,1024,1024,1024,47.3,0,80,3.872,3.885,3.836,3.896,3.893,3.868,24.166,33,152.6797699,50.4,6,P-GPS,
20030,2019-07-04 06:25:50,61.504732,23.763985,50.5,,,152.7797699,0.141,0.477494,19,0,23.028,152.7797699,50.5,5.118,1.2784,0.1,0.1,0,47.1, 2, -3.5,0,0,1024,1024,1024,1024,47.3,0,80,3.872,3.885,3.836,3.896,3.893,3.868,24.004,33,152.7797699,50.5,6,P-GPS,
20140,2019-07-04 06:25:50,61.504732,23.763986,50.5,,,152.7797699,0.1,0.424439,19,0,23.028,152.7797699,50.5,5.118,1.2784,0,0.1,0,47.1, 2.9, -4.1,0,0,1024,1024,1024,1024,47.3,0,80,3.872,3.885,3.836,3.896,3.893,3.868,24.004,33,152.7797699,50.5,6,P-GPS,
20240,2019-07-04 06:25:50,61.504732,23.763986,50.5,,,152.7797699,0.1,0.424439,19,0,23.028,152.7797699,50.5,5.118,1.2784,0,0.1,0,47.1, 3, -4.5,0,0,1024,1024,1024,1024,47.3,0,80,3.872,3.885,3.836,3.896,3.893,3.868,24.004,33,152.7797699,50.5,6,P-GPS,
20340,2019-07-04 06:25:50,61.504732,23.763987,50.5,,,152.7797699,0,0.371384,19,0,23.028,152.7797699,50.5,5.118,1.2784,0,0,0,47.1, 2.5, -4.8,0,0,1024,1024,1024,1024,47.3,0,80,3.872,3.885,3.836,3.896,3.893,3.868,24.004,33,152.7797699,50.5,6,P-GPS,
20440,2019-07-04 06:25:50,61.504732,23.763987,50.5,,,152.7797699,0.141,0.371384,19,0,23.028,152.7797699,50.5,5.118,1.2784,0,0.1,0.1,47.2, 2, -4.7,0,0,1024,1024,1024,1024,47.3,0,80,3.872,3.885,3.836,3.896,3.893,3.868,24.004,33,152.7797699,50.5,6,P-GPS,
20560,2019-07-04 06:25:50,61.504732,23.763987,50.4,,,152.6797699,0.141,0.371384,19,0,23.028,152.7797699,50.5,5.118,1.2784,0,0.1,0.1,47.2, 1.8, -4.8,0,0,1024,1024,1024,1024,47.3,0,80,3.872,3.885,3.836,3.896,3.893,3.868,24.004,33,152.6797699,50.4,6,P-GPS,
20660,2019-07-04 06:25:50,61.504732,23.763987,50.4,,,152.6797699,0.1,0.371384,19,0,23.028,152.7797699,50.5,5.118,1.2784,0,0,0.1,47.2, 1.7, -4.9,0,0,1024,1024,1024,1024,47.3,0,80,3.872,3.885,3.836,3.896,3.893,3.868,24.004,33,152.6797699,50.4,6,P-GPS,
20760,2019-07-04 06:25:51,61.504732,23.763987,50.3,,,152.5797699,0.1,0.371384,19,0,23.028,152.7797699,50.5,5.118,1.2784,0,0,0.1,47.1, 1.7, -5.3,0,0,1024,1024,1024,1024,47.3,0,80,3.872,3.885,3.836,3.896,3.893,3.868,24.004,33,152.5797699,50.3,6,P-GPS,
20860,2019-07-04 06:25:51,61.504732,23.763987,50.3,,,152.5797699,0.1,0.371384,19,0,23.028,152.7797699,50.5,5.118,1.2784,0,0,0.1,47.1, 1.9, -5.7,0,0,1024,1024,1024,1024,47.3,0,80,3.872,3.885,3.836,3.896,3.893,3.868,24.004,33,152.5797699,50.3,6,P-GPS,
20960,2019-07-04 06:25:51,61.504732,23.763988,50.3,,,152.5797699,0.1,0.318329,19,0,23.028,152.7797699,50.5,5.118,1.2784,0,0,0.1,47.1, 2.1, -6.3,0,0,1024,1024,1024,1024,47.3,0,80,3.872,3.885,3.836,3.896,3.893,3.868,24.004,33,152.5797699,50.3,6,P-GPS,
21060,2019-07-04 06:25:51,61.504732,23.763988,50.2,,,152.4797699,0.1,0.318329,19,0,23.028,152.7797699,50.5,5.118,1.2784,0,0,0.1,47.2, 1.9, -5.9,0,0,1024,1024,1024,1024,47.3,0,80,3.872,3.885,3.836,3.896,3.893,3.868,24.004,33,152.4797699,50.2,6,P-GPS,
21260,2019-07-04 06:25:51,61.504732,23.763988,50.2,,,152.4797699,0.1,0.318329,19,0,23.028,152.7797699,50.5,5.118,1.2784,0,0,0.1,47.2, 1.6, -5.3,0,0,1024,1024,1024,1024,47.3,0,80,3.872,3.885,3.836,3.896,3.893,3.868,24.004,33,152.4797699,50.2,6,P-GPS,
21270,2019-07-04 06:25:51,61.504732,23.763988,50.1,,,152.3797699,0,0.318329,19,0,23.028,152.7797699,50.5,5.118,1.2784,0,0,0,47.2, 1.4, -5,0,0,1024,1024,1024,1024,47.3,0,80,3.872,3.885,3.836,3.896,3.893,3.868,24.004,33,152.3797699,50.1,6,P-GPS,
21380,2019-07-04 06:25:51,61.504732,23.763988,50.2,,,152.4797699,0,0.318329,19,0,23.028,152.7797699,50.5,5.118,1.2784,0,0,0,47.3, 1.7, -4.9,0,0,1024,1024,1024,1024,47.3,0,80,3.872,3.885,3.836,3.896,3.893,3.868,24.004,33,152.4797699,50.2,6,P-GPS,
21480,2019-07-04 06:25:51,61.504732,23.763988,50.2,,,152.4797699,0.1,0.318329,19,0,23.028,152.7797699,50.5,5.118,1.2784,0.1,0,0,47.3, 2, -4.9,0,0,1024,1024,1024,1024,47.3,0,80,3.872,3.885,3.836,3.896,3.893,3.868,24.004,33,152.4797699,50.2,6,P-GPS,
21580,2019-07-04 06:25:51,61.504732,23.763988,50.2,,,152.4797699,0.1,0.318329,19,0,23.028,152.7797699,50.5,5.118,1.2784,0.1,0,0,47.2, 2.2, -4.5,0,0,1024,1024,1024,1024,47.3,0,80,3.872,3.885,3.836,3.896,3.893,3.868,24.004,33,152.4797699,50.2,6,P-GPS,
21680,2019-07-04 06:25:51,61.504732,23.763988,50.3,,,152.5797699,0.1,0.318329,19,0,23.028,152.7797699,50.5,5.118,1.2784,0.1,0,0,47.1, 2.4, -4.3,0,0,1024,1024,1024,1024,47.3,0,80,3.872,3.885,3.836,3.896,3.893,3.868,24.004,33,152.5797699,50.3,6,P-GPS,
21780,2019-07-04 06:25:52,61.504732,23.763988,50.3,,,152.5797699,0,0.318329,19,0,23.028,152.7797699,50.5,5.118,1.2784,0,0,0,47.1, 2.5, -4.3,0,0,1024,1024,1024,1024,47.3,0,80,3.872,3.885,3.836,3.896,3.893,3.868,24.004,33,152.5797699,50.3,6,P-GPS,
21880,2019-07-04 06:25:52,61.504732,23.763988,50.3,,,152.5797699,0,0.318329,19,0,23.028,152.7797699,50.5,5.118,1.2784,0,0,0,47.1, 2.4, -4.5,0,0,1024,1024,1024,1024,47.3,0,80,3.872,3.885,3.836,3.896,3.893,3.868,24.004,33,152.5797699,50.3,6,P-GPS,
22070,2019-07-04 06:25:52,61.504732,23.763988,50.2,,,152.4797699,0,0.318329,19,0,23.028,152.7797699,50.5,5.118,1.2784,0,0,0,47.1, 2, -4.4,0,0,1024,1024,1024,1024,47.3,0,80,3.872,3.885,3.836,3.896,3.893,3.868,24.004,33,152.4797699,50.2,6,P-GPS,
22090,2019-07-04 06:25:52,61.504732,23.763988,50.2,,,152.4797699,0.1,0.318329,19,0,23.028,152.7797699,50.5,5.118,1.2784,0,0,0.1,47.2, 1.5, -4.5,0,0,1024,1024,1024,1024,47.3,0,80,3.872,3.885,3.836,3.896,3.893,3.868,24.004,33,152.4797699,50.2,6,P-GPS,
22200,2019-07-04 06:25:52,61.504732,23.763988,50.1,,,152.3797699,0,0.318329,19,0,23.028,152.7797699,50.5,5.118,1.2784,0,0,0,47.2, 1.4, -4.6,0,0,1024,1024,1024,1024,47.3,0,80,3.872,3.885,3.836,3.896,3.893,3.868,24.004,33,152.3797699,50.1,6,P-GPS,
22310,2019-07-04 06:25:52,61.504732,23.763987,50.2,,,152.4797699,0,0.371384,19,0,23.028,152.7797699,50.5,5.118,1.2784,0,0,0,47.3, 1.4, -4.6,0,0,1024,1024,1024,1024,47.3,0,80,3.872,3.885,3.836,3.896,3.893,3.868,24.004,33,152.4797699,50.2,6,P-GPS,
22410,2019-07-04 06:25:52,61.504732,23.763987,50.1,,,152.3797699,0,0.371384,19,0,23.028,152.7797699,50.5,5.118,1.2784,0,0,0,47.2, 1.5, -4.6,0,0,1024,1024,1024,1024,47.3,0,80,3.872,3.885,3.836,3.896,3.893,3.868,24.004,33,152.3797699,50.1,6,P-GPS,
22650,2019-07-04 06:25:52,61.504731,23.763987,50.1,,,152.3797699,0,0.387676,19,0,23.028,152.7797699,50.5,5.118,1.2784,0,0,0,47.1, 1.5, -4.6,0,0,1024,1024,1024,1024,47.3,0,80,3.872,3.885,3.836,3.896,3.893,3.868,24.004,33,152.3797699,50.1,6,P-GPS,
22660,2019-07-04 06:25:52,61.504731,23.763987,50.1,,,152.3797699,0,0.387676,19,0,23.028,152.7797699,50.5,5.118,1.2784,0,0,0,47.1, 1.3, -4.6,0,0,1024,1024,1024,1024,47.3,0,80,3.872,3.885,3.836,3.896,3.893,3.868,24.004,33,152.3797699,50.1,6,P-GPS,
22730,2019-07-04 06:25:52,61.504731,23.763987,50.1,,,152.3797699,0,0.387676,19,0,23.028,152.7797699,50.5,5.118,1.2784,0,0,0,47, 1.3, -4.9,0,0,1024,1024,1024,1024,47.3,0,80,3.872,3.885,3.836,3.896,3.893,3.868,24.004,33,152.3797699,50.1,6,P-GPS,
22800,2019-07-04 06:25:53,61.504731,23.763987,50.1,,,152.3797699,0,0.387676,19,0,23.028,152.7797699,50.5,5.118,1.2784,0,0,0,47, 1.5, -5.2,0,0,1024,1024,1024,1024,47.3,0,80,3.872,3.885,3.836,3.896,3.893,3.868,24.004,33,152.3797699,50.1,6,P-GPS,
22910,2019-07-04 06:25:53,61.504731,23.763986,50.1,,,152.3797699,0,0.438766,19,0,23.028,152.7797699,50.5,5.118,1.2784,0,0,0,47.1, 1.5, -4.8,0,0,1024,1024,1024,1024,47.3,0,80,3.872,3.885,3.836,3.896,3.893,3.868,24.004,33,152.3797699,50.1,6,P-GPS,
23010,2019-07-04 06:25:53,61.504731,23.763986,50,,,152.2797699,0,0.438766,19,0,23.148,152.7797699,50.5,5.118,1.2784,0,0,0,47.2, 1.1, -4.8,0,0,1024,1024,1024,1024,47.3,0,79,3.872,3.885,3.836,3.896,3.893,3.868,23.712,34,152.2797699,50,6,P-GPS,
23120,2019-07-04 06:25:53,61.504731,23.763986,50,,,152.2797699,0,0.438766,19,0,23.148,152.7797699,50.5,5.118,1.2784,0,0,0,47.3, 0.9, -4.8,0,0,1024,1024,1024,1024,47.3,0,79,3.872,3.885,3.836,3.896,3.893,3.868,23.712,34,152.2797699,50,6,P-GPS,
23200,2019-07-04 06:25:53,61.504731,23.763986,50,,,152.2797699,0.1,0.438766,19,0,23.148,152.7797699,50.5,5.118,1.2784,0,-0.1,0,47.3, 0.9, -4.8,0,0,1024,1024,1024,1024,47.3,0,79,3.872,3.885,3.836,3.896,3.893,3.868,23.712,34,152.2797699,50,6,P-GPS,
23300,2019-07-04 06:25:53,61.504732,23.763985,49.9,,,152.1797699,0.1,0.477494,19,0,23.148,152.7797699,50.5,5.118,1.2784,0,-0.1,0,47.4, 0.8, -4.3,0,0,1024,1024,1024,1024,47.3,0,79,3.872,3.885,3.836,3.896,3.893,3.868,23.712,34,152.1797699,49.9,6,P-GPS,
23400,2019-07-04 06:25:53,61.504732,23.763985,49.9,,,152.1797699,0.1,0.477494,19,0,23.148,152.7797699,50.5,5.118,1.2784,0,-0.1,0,47.4, 0, -3.2,0,0,1024,1024,1024,1024,47.3,0,79,3.872,3.885,3.836,3.896,3.893,3.868,23.712,34,152.1797699,49.9,6,P-GPS,
23500,2019-07-04 06:25:53,61.504732,23.763984,49.9,,,152.1797699,0.1,0.530549,19,0,23.148,152.7797699,50.5,5.118,1.2784,0,-0.1,0,47.3, -0.9, -3,0,0,1024,1024,1024,1024,47.3,0,79,3.872,3.885,3.836,3.896,3.893,3.868,23.712,34,152.1797699,49.9,6,P-GPS,
23610,2019-07-04 06:25:53,61.504732,23.763984,49.9,,,152.1797699,0,0.530549,19,0,23.148,152.7797699,50.5,5.118,1.2784,0,0,0,47.3, -1, -3.2,0,0,1024,1024,1024,1024,47.3,0,79,3.872,3.885,3.836,3.896,3.893,3.868,23.712,34,152.1797699,49.9,6,P-GPS,
23710,2019-07-04 06:25:53,61.504732,23.763984,49.9,,,152.1797699,0.1,0.530549,19,0,23.148,152.7797699,50.5,5.118,1.2784,0,0,-0.1,47.2, -0.5, -3.7,0,0,1024,1024,1024,1024,47.3,0,79,3.872,3.885,3.836,3.896,3.893,3.868,23.712,34,152.1797699,49.9,6,P-GPS,
23810,2019-07-04 06:25:54,61.504732,23.763983,50,,,152.2797699,0.1,0.583604,19,0,23.148,152.7797699,50.5,5.118,1.2784,0,0,-0.1,47.3, 0.1, -3.8,0,0,1024,1024,1024,1024,47.3,0,79,3.872,3.885,3.836,3.896,3.893,3.868,23.712,34,152.2797699,50,6,P-GPS,
23910,2019-07-04 06:25:54,61.504732,23.763983,49.9,,,152.1797699,0,0.583604,19,0,23.148,152.7797699,50.5,5.118,1.2784,0,0,0,47.3, 0.5, -4,0,0,1024,1024,1024,1024,47.3,0,79,3.872,3.885,3.836,3.896,3.893,3.868,23.712,34,152.1797699,49.9,6,P-GPS,
24010,2019-07-04 06:25:54,61.504731,23.763983,49.9,,,152.1797699,0,0.594105,19,0,23.19,152.7797699,50.5,5.118,1.2784,0,0,0,47.3, 0.4, -4.6,0,0,1024,1024,1024,1024,47.3,0,79,3.842,3.857,3.808,3.873,3.873,3.845,24.336,34,152.1797699,49.9,6,P-GPS,
24130,2019-07-04 06:25:54,61.504731,23.763983,49.8,,,152.0797699,0,0.594105,19,0,23.19,152.7797699,50.5,5.118,1.2784,0,0,0,47.2, 0.3, -5.1,0,0,1024,1024,1024,1024,47.3,0,79,3.842,3.857,3.808,3.873,3.873,3.845,24.336,34,152.0797699,49.8,6,P-GPS,
24230,2019-07-04 06:25:54,61.504731,23.763983,49.8,,,152.0797699,0,0.594105,19,0,23.19,152.7797699,50.5,5.118,1.2784,0,0,0,47.1, 0.2, -5.2,0,0,1024,1024,1024,1024,47.3,0,79,3.842,3.857,3.808,3.873,3.873,3.845,24.336,34,152.0797699,49.8,6,P-GPS,
24330,2019-07-04 06:25:54,61.504731,23.763983,49.8,,,152.0797699,0,0.594105,19,0,23.19,152.7797699,50.5,5.118,1.2784,0,0,0,47.1, 0, -5,0,0,1024,1024,1024,1024,47.3,0,79,3.842,3.857,3.808,3.873,3.873,3.845,24.336,34,152.0797699,49.8,6,P-GPS,
